codigo,sensor,nombre,departamen,municipio,zona_hidro,latitud,longitud,categoria,unidad,dpto_cnmbr,mpio_cnmbr,depto_def,compara_dp,compara_mp,mpio_def,geometry,data,daily rain,1-rain ant.rain,2-rain ant.rain,3-rain ant.rain,15-rain ant.rain,30-rain ant.rain,prob_ep
21050060,240,ARGENTINA LA,HUILA,LA ARGENTINA,ALTO MAGDALENA,2.199055556,-75.97227778,PRECIPITACIÓN,mm,HUILA,LA ARGENTINA,HUILA,T,T,LA ARGENTINA,POINT (789190.9077974178 735061.4976238094),2025-11-03,0.6000000000000001,0.0,0.0,1.8,45.2,104.0,0.735
26125710,240,AEROPUERTO MATECANA,RISARALDA,PEREIRA,CAUCA,4.812675,-75.739519444,PRECIPITACIÓN,mm,RISARALDA,PEREIRA,RISARALDA,T,T,PEREIRA,POINT (815608.0110620828 1024162.5612581802),2025-11-03,32.0,0.0,0.4,12.4,344.0,826.4000000000001,0.74
21127030,240,SANTA MARIA,HUILA,SANTA MARÍA,ALTO MAGDALENA,2.971777778,-75.59244444,PRECIPITACIÓN,mm,HUILA,SANTA MARÍA,HUILA,T,T,SANTA MARÍA,POINT (831563.6603430051 820488.1333079201),2025-11-03,3.2,0.0,0.0,6.800000000000001,90.2,191.2,0.76
24035340,240,AEROPUERTO A LLERAS C,BOYACÁ,FIRAVITOBA,SOGAMOSO,5.676944444,-72.96791667,PRECIPITACIÓN,mm,BOYACÁ,FIRAVITOBA,BOYACÁ,T,T,FIRAVITOBA,POINT (1122924.9376659044 1119629.895720755),2025-11-03,0.0,0.0,0.0,3.0,51.400000000000006,94.1,0.695
27030140,240,LA PALMA DE COCO,ANTIOQUIA,SEGOVIA,NECHÍ,7.236111111,-74.80794444,PRECIPITACIÓN,mm,ANTIOQUIA,SEGOVIA,ANTIOQUIA,T,T,SEGOVIA,POINT (919329.3710642308 1292002.6374200038),2025-11-03,5.9,0.2,0.2,13.2,174.6,300.90000000000003,0.85
24035507,240,SOCHA,BOYACÁ,SOCHA,SOGAMOSO,5.982444444,-72.71044444,PRECIPITACIÓN,mm,BOYACÁ,SOCHA,BOYACÁ,T,T,SOCHA,POINT (1151371.6636005188 1153484.3234440363),2025-11-03,0.0,0.0,0.0,1.0,8.7,71.9,0.7
3516700232,240,EL TOBAL,BOYACÁ,AQUITANIA,META,5.512222222,-72.865555556,PRECIPITACIÓN,mm,BOYACÁ,AQUITANIA,BOYACÁ,T,T,AQUITANIA,POINT (1134304.086105298 1101432.8235127917),2025-11-03,1.2000000000000002,1.5,2.6,4.1,16.1,63.9,0.565
2612500214,240,BUENAVISTA,QUINDÍO,BUENAVISTA,CAUCA,4.3575,-75.736666667,PRECIPITACIÓN,mm,QUINDÍO,BUENAVISTA,QUINDÍO,T,T,BUENAVISTA,POINT (815808.002599092 973806.9312263124),2025-11-03,4.8,0.5,2.9,5.7,174.9,325.4,0.81
21205791,257,EL DORADO CATAM,BOGOTÁ,BOGOTÁ D.C,ALTO MAGDALENA,4.705583333,-74.15066667,GPRS - PRECIPITACIÓN,mm,"BOGOTÁ, D.C.",BOGOTÁ D.C,BOGOTÁ,T,T,BOGOTÁ D.C,POINT (991883.2699727719 1012096.1604533064),2025-11-03,10.306,0.0,0.0,0.0,46.081,260.227,0.78
2120000109,240,COLEGIO RODOLFO LLINAS,BOGOTÁ,BOGOTÁ D.C,ALTO MAGDALENA,4.720124,-74.108288,PRECIPITACIÓN,mm,"BOGOTÁ, D.C.",BOGOTÁ D.C,BOGOTÁ,T,T,BOGOTÁ D.C,POINT (996585.1197902975 1013703.7435458909),2025-11-03,3.9,0.0,0.0,0.0,74.0,131.7,0.605
24015509,240,ARCABUCO-24015509,BOYACÁ,ARCABUCO,SOGAMOSO,5.761611111,-73.44497222,PRECIPITACIÓN,mm,BOYACÁ,ARCABUCO,BOYACÁ,T,T,ARCABUCO,POINT (1070061.603381022 1128913.8569326883),2025-11-03,0.1,0.1,0.2,6.1,64.89999999999999,185.4,0.785
2120000128,240,COL. GABRIEL GARCIA MARQUEZ,BOGOTÁ,BOGOTÁ D.C,ALTO MAGDALENA,4.50499,-74.09235,PRECIPITACIÓN,mm,"BOGOTÁ, D.C.","BOGOTÁ, D.C.",BOGOTÁ,T,T,BOGOTÁ D.C,POINT (998352.8573261154 989913.853435652),2025-11-03,0.0,0.0,0.0,0.1,8.8,37.00000000000001,0.635
28025090,240,CENTENARIO HACIENDA,CESAR,AGUSTÍN CODAZZI,CESAR,9.85025,-73.26547222,PRECIPITACIÓN,mm,CESAR,AGUSTÍN CODAZZI,CESAR,T,T,AGUSTÍN CODAZZI,POINT (1089074.3653154296 1581166.9178846227),2025-11-03,74.7,89.8,167.89999999999998,239.29999999999995,1589.6,3593.0,0.985
24015519,240,SUAITA1-24015519,SANTANDER,SUAITA,SOGAMOSO,6.099022222,-73.44255278,PRECIPITACIÓN,mm,SANTANDER,SUAITA,SANTANDER,T,T,SUAITA,POINT (1070286.8716760336 1166229.4019452024),2025-11-03,2.7,0.0,0.0,16.7,158.8,322.1,0.715
21217180,240,MONTEZUMA,TOLIMA,IBAGUÉ,ALTO MAGDALENA,4.4819444,-75.28611111,PRECIPITACIÓN,mm,TOLIMA,IBAGUÉ,TOLIMA,T,T,IBAGUÉ,POINT (865857.698579693 987476.0014329762),2025-11-03,0.0,0.0,16.0,16.0,121.5,352.0,0.69
52045080,240,UNIVERSIDAD DE NARINO,NARIÑO,PASTO,PATÍA,1.23,-77.28,PRECIPITACIÓN,mm,NARIÑO,PASTO,NARIÑO,T,T,PASTO,POINT (643394.9970589173 627988.2034096002),2025-11-03,29.0,0.0,0.0,0.0,54.5,98.7,0.73
24015518,240,SIMIJACA-24015518,CUNDINAMARCA,SIMIJACA,SOGAMOSO,5.511925,-73.86016111,PRECIPITACIÓN,mm,CUNDINAMARCA,SIMIJACA,CUNDINAMARCA,T,T,SIMIJACA,POINT (1024083.8648245857 1101267.883160097),2025-11-03,0.1,0.0,0.1,3.1,78.5,130.40000000000003,0.89
21206600,240,NUEVA GENERACION,BOGOTÁ,BOGOTÁ D.C,ALTO MAGDALENA,4.782222222,-74.09433333,PRECIPITACIÓN,mm,"BOGOTÁ, D.C.","BOGOTÁ, D.C.",BOGOTÁ,T,T,BOGOTÁ D.C,POINT (998133.480427581 1020570.6299125112),2025-11-03,0.0,0.0,0.0,0.0,0.0,0.0,0.61
52050080,240,TANGUA,NARIÑO,TANGUA,PATÍA,1.094166667,-77.39197222,PRECIPITACIÓN,mm,NARIÑO,TANGUA,NARIÑO,T,T,TANGUA,POINT (630895.1886953759 612958.4083147562),2025-11-03,16.1,0.0,0.0,2.4,115.1,212.7,0.625
23195502,240,AEROPUERTO PALONEGRO,SANTANDER,LEBRIJA,MEDIO MAGDALENA,7.121472222,-73.18452778,PRECIPITACIÓN,mm,SANTANDER,LEBRIJA,SANTANDER,T,T,LEBRIJA,POINT (1098648.202408641 1279355.073563879),2025-11-03,0.0,0.0,0.0,0.5,321.20000000000005,410.8,0.67
52050060,240,RIO BOBO,NARIÑO,PASTO,PATÍA,1.0995,-77.29972222,PRECIPITACIÓN,mm,NARIÑO,PASTO,NARIÑO,T,T,PASTO,POINT (641180.017507819 613537.8645824878),2025-11-03,10.8,0.9,0.9,0.9,62.900000000000006,106.0,0.755
23065120,240,LA CABRERA,CUNDINAMARCA,PACHO,MEDIO MAGDALENA,5.141555556,-74.13936111,PRECIPITACIÓN,mm,CUNDINAMARCA,PACHO,CUNDINAMARCA,T,T,PACHO,POINT (993142.0531808411 1060306.9482659886),2025-11-03,0.4,0.0,0.1,0.1,65.2,137.2,0.685
23085080,240,GRANJA EXPERIMENTAL EL NUS,ANTIOQUIA,SAN ROQUE,MEDIO MAGDALENA,6.483583333,-74.83669444,PRECIPITACIÓN,mm,ANTIOQUIA,SAN ROQUE,ANTIOQUIA,T,T,SAN ROQUE,POINT (916022.2671615124 1208778.544220768),2025-11-03,0.0,0.0,0.0,0.0,163.0,372.0,0.67
24017590,240,PUENTE NACIONAL,SANTANDER,PUENTE NACIONAL,SOGAMOSO,5.872777778,-73.67777778,PRECIPITACIÓN,mm,SANTANDER,PUENTE NACIONAL,SANTANDER,T,T,PUENTE NACIONAL,POINT (1044266.115906782 1141184.2732534017),2025-11-03,3.0000000000000004,14.4,14.4,22.6,152.99999999999997,337.40000000000003,0.91
2120000127,240,COL. EDUARDO UMAÑA,BOGOTÁ,BOGOTÁ D.C,ALTO MAGDALENA,4.48997,-74.11308,PRECIPITACIÓN,mm,"BOGOTÁ, D.C.","BOGOTÁ, D.C.",BOGOTÁ,T,T,BOGOTÁ D.C,POINT (996052.2051806485 988253.0044398803),2025-11-03,0.0,0.0,0.0,0.2,8.8,51.8,0.675
44017120,240,PIEDRA LISA II,PUTUMAYO,MOCOA,CAQUETÁ,1.213611111,-76.66102778,PRECIPITACIÓN,mm,PUTUMAYO,MOCOA,PUTUMAYO,T,T,MOCOA,POINT (712369.9124740482 626099.3231467434),2025-11-03,4.6000000000000005,0.2,3.8,11.8,128.2,247.6,0.865
21135020,240,JABALCON,TOLIMA,SALDAÑA,ALTO MAGDALENA,3.85575,-75.01575,PRECIPITACIÓN,mm,TOLIMA,SALDAÑA,TOLIMA,T,T,SALDAÑA,POINT (895785.5544562996 918178.1376920377),2025-11-03,5.0,2.8,3.1,3.8,126.3,209.00000000000003,0.915
23035030,240,BASE PALANQUERO,CUNDINAMARCA,PUERTO SALGAR,MEDIO MAGDALENA,5.49423,-74.65807,PRECIPITACIÓN,mm,CUNDINAMARCA,PUERTO SALGAR,CUNDINAMARCA,T,T,PUERTO SALGAR,POINT (935665.9729147501 1099337.910960442),2025-11-03,41.4,5.5,5.5,82.4,146.9,386.8,0.85
22017020,240,SARDINAS LAS,TOLIMA,RIOBLANCO,SALDAÑA,3.438472222,-75.68658333,PRECIPITACIÓN,mm,TOLIMA,RIOBLANCO,TOLIMA,T,T,RIOBLANCO,POINT (821175.3534095231 872129.3233882096),2025-11-03,5.8,4.4,17.8,65.60000000000001,227.4,374.4,0.9
2620500210,240,UFRANÁ,ANTIOQUIA,TITIRIBÍ,CAUCA,6.085388889,-75.811972222,PRECIPITACIÓN,mm,ANTIOQUIA,TITIRIBÍ,ANTIOQUIA,T,T,TITIRIBÍ,POINT (807972.2310977959 1164988.5503264605),2025-11-03,20.4,0.2,18.7,18.9,737.9000000000001,1728.2,0.775
21205940,240,VILLA INES,CUNDINAMARCA,FACATATIVÁ,ALTO MAGDALENA,4.83211,-74.38056,PRECIPITACIÓN,mm,CUNDINAMARCA,FACATATIVÁ,CUNDINAMARCA,T,T,FACATATIVÁ,POINT (966383.3452345058 1026094.7899866503),2025-11-03,0.0,0.0,0.0,0.0,26.8,63.000000000000014,0.625
21185080,240,VALLE DE SAN JUAN,TOLIMA,VALLE DE SAN JUAN,ALTO MAGDALENA,4.216458333000001,-75.104611111,PRECIPITACIÓN,mm,TOLIMA,VALLE DE SAN JUAN,TOLIMA,T,T,VALLE DE SAN JUAN,POINT (885964.7132989706 958082.9605615234),2025-11-03,0.0,0.2,0.3,0.5,10.1,76.0,0.74
24035503,240,CORRALES ACUEDUCTO,BOYACÁ,CORRALES,SOGAMOSO,5.818416667,-72.84411111,PRECIPITACIÓN,mm,BOYACÁ,CORRALES,BOYACÁ,T,T,CORRALES,POINT (1136608.85619288 1135305.9854111308),2025-11-03,0.0,0.0,0.0,3.3000000000000003,6.8,22.4,0.51
21208480,240,KENNEDY,BOGOTÁ,BOGOTÁ D.C,ALTO MAGDALENA,4.61104201,-74.178333,PRECIPITACIÓN,mm,"BOGOTÁ, D.C.","BOGOTÁ, D.C.",BOGOTÁ,T,T,BOGOTÁ D.C,POINT (988812.2822074204 1001641.995943346),2025-11-03,1.5,0.0,0.0,0.0,14.4,60.8,0.665
21017040,240,SALADO BLANCO,HUILA,ELÍAS,ALTO MAGDALENA,1.988111111,-76.01202778,PRECIPITACIÓN,mm,HUILA,ELÍAS,HUILA,T,T,ELÍAS,POINT (784737.9173362191 711728.4750353375),2025-11-03,15.0,0.0,0.2,2.6000000000000005,20.6,58.20000000000001,0.68
24015514,240,LA LAJA-24015514,SANTANDER,GUADALUPE,SOGAMOSO,6.237166667,-73.41533333,PRECIPITACIÓN,mm,SANTANDER,GUADALUPE,SANTANDER,T,T,GUADALUPE,POINT (1073281.1074511113 1181511.0224769071),2025-11-03,0.5,0.0,1.5,40.3,223.8,423.3,0.835
26155110,240,AEROPUERTO LA NUBIA,CALDAS,MANIZALES,CAUCA,5.029777778,-75.469916667,PRECIPITACIÓN,mm,CALDAS,MANIZALES,CALDAS,T,T,MANIZALES,POINT (845575.5981266246 1048110.4311148388),2025-11-03,1.0,2.6,3.2,3.8,5.6000000000000005,7.200000000000001,0.565
2403000113,240,LAS CAÑAS,BOYACÁ,CHISCAS,SOGAMOSO,6.6058,-72.4836,PRECIPITACIÓN,mm,BOYACÁ,CHISCAS,BOYACÁ,T,T,CHISCAS,POINT (1176285.1563667275 1222513.6313196507),2025-11-03,0.0,0.0,0.0,0.0,6.4,13.9,0.655
35195060,240,TOQUILLA,BOYACÁ,AQUITANIA,META,5.523611111,-72.79097222,PRECIPITACIÓN,mm,BOYACÁ,AQUITANIA,BOYACÁ,T,T,AQUITANIA,POINT (1142567.748649711 1102709.8882663953),2025-11-03,0.0,1.15,1.15,4.47,15.1,65.66,0.575
21206560,240,INEM KENNEDY,BOGOTÁ,BOGOTÁ D.C,ALTO MAGDALENA,4.62543,-74.15606,PRECIPITACIÓN,mm,"BOGOTÁ, D.C.","BOGOTÁ, D.C.",BOGOTÁ,T,T,BOGOTÁ D.C,POINT (991283.9084666218 1003232.731566757),2025-11-03,1.5,0.0,0.0,0.0,14.8,72.3,0.625
23087150,240,PUENTE REAL,ANTIOQUIA,RIONEGRO,MEDIO MAGDALENA,6.143472222,-75.37994444,PRECIPITACIÓN,mm,ANTIOQUIA,RIONEGRO,ANTIOQUIA,T,T,RIONEGRO,POINT (855828.3419183565 1171278.9970112343),2025-11-03,12.2,3.2,6.4,10.0,75.4,162.4,0.83
35160010,240,POTRERITO,BOYACÁ,AQUITANIA,META,5.477583333,-72.94861111,PRECIPITACIÓN,mm,BOYACÁ,AQUITANIA,BOYACÁ,T,T,AQUITANIA,POINT (1125106.1852811358 1097583.5004824768),2025-11-03,0.0,0.3,0.7000000000000001,0.8,38.2,75.2,0.73
2120000136,240,COL. LOS PINOS SEDE A,BOGOTÁ,BOGOTÁ D.C,ALTO MAGDALENA,4.58781,-74.06813,PRECIPITACIÓN,mm,"BOGOTÁ, D.C.","BOGOTÁ, D.C.",BOGOTÁ,T,T,BOGOTÁ D.C,POINT (1001040.6223134082 999072.1828489406),2025-11-03,0.0,0.0,0.0,0.0,37.5,113.5,0.675
21205910,240,LA COSECHA,CUNDINAMARCA,ZIPAQUIRÁ,ALTO MAGDALENA,4.98922,-74.00119,PRECIPITACIÓN,mm,CUNDINAMARCA,ZIPAQUIRÁ,CUNDINAMARCA,T,T,ZIPAQUIRÁ,POINT (1008463.6989437124 1043461.3942080305),2025-11-03,0.0,0.0,0.0,0.0,51.2,101.2,0.615
2120000131,240,COL. ANTONIO GARCIA,BOGOTÁ,BOGOTÁ D.C,ALTO MAGDALENA,4.545,-74.13944,PRECIPITACIÓN,mm,"BOGOTÁ, D.C.","BOGOTÁ, D.C.",BOGOTÁ,T,T,BOGOTÁ D.C,POINT (993127.2858570666 994338.4843196465),2025-11-03,0.4,0.0,0.0,0.0,2.9000000000000004,47.6,0.575
2120500204,240,IDEAM PUENTE ARANDA,BOGOTÁ,BOGOTÁ D.C,ALTO MAGDALENA,4.621556111,-74.104708889,PRECIPITACIÓN,mm,"BOGOTÁ, D.C.","BOGOTÁ, D.C.",BOGOTÁ,T,T,BOGOTÁ D.C,POINT (996981.7810378289 1002803.9270530449),2025-11-03,0.4,0.0,0.0,0.0,24.1,93.9,0.685
27015330,257,AEROPUERTO OLAYA HERRERA,ANTIOQUIA,MEDELLÍN,NECHÍ,6.2246389,-75.5882,GPRS - PRECIPITACIÓN,mm,ANTIOQUIA,MEDELLÍN,ANTIOQUIA,T,T,MEDELLÍN,POINT (832796.3563838707 1180318.6481498764),2025-11-03,3.444,5.444,5.444,11.728000000000002,97.328,255.728,0.745
24015511,240,EL OLIVAL-24015511,SANTANDER,SUAITA,SOGAMOSO,6.1515,-73.34172222,PRECIPITACIÓN,mm,SANTANDER,SUAITA,SANTANDER,T,T,SUAITA,POINT (1081441.0011644696 1172047.4153961688),2025-11-03,0.0,0.0,1.3,11.000000000000002,95.4,249.7,0.69
21205670,240,LA FLORIDA,CUNDINAMARCA,ANOLAIMA,ALTO MAGDALENA,4.770888889,-74.43763889,PRECIPITACIÓN,mm,CUNDINAMARCA,ANOLAIMA,CUNDINAMARCA,T,T,ANOLAIMA,POINT (960048.1177848763 1019327.7876871821),2025-11-03,2.8,0.0,0.0,0.2,67.2,112.6,0.69
2305500055,240,SAN JOSE DE PENSILVANIA,CALDAS,PENSILVANIA,MEDIO MAGDALENA,5.372638889,-75.150138889,PRECIPITACIÓN,mm,CALDAS,PENSILVANIA,CALDAS,T,T,PENSILVANIA,POINT (881109.4784243514 1085964.853818381),2025-11-03,1.8,0.0,38.3,56.5,186.2,392.50000000000006,0.685
2120000121,240,COL. GUSTAVO RESTREPO,BOGOTÁ,BOGOTÁ D.C,ALTO MAGDALENA,4.575873,-74.106178,PRECIPITACIÓN,mm,"BOGOTÁ, D.C.","BOGOTÁ, D.C.",BOGOTÁ,T,T,BOGOTÁ D.C,POINT (996818.5658471993 997752.2298258239),2025-11-03,0.0,0.0,0.0,0.0,8.1,77.5,0.745
21202230,240,UAN SEDE USME,BOGOTÁ,BOGOTÁ D.C,ALTO MAGDALENA,4.48152,-74.12708,PRECIPITACIÓN,mm,"BOGOTÁ, D.C.","BOGOTÁ, D.C.",BOGOTÁ,T,T,BOGOTÁ D.C,POINT (994498.419647787 987318.6844425787),2025-11-03,0.8,0.0,0.0,2.0,11.2,60.5,0.66
1111500203,240,CAMPO ALEGRE,ANTIOQUIA,DABEIBA,ATRATO - DARIÉN,7.026813889,-76.252825,PRECIPITACIÓN,mm,ANTIOQUIA,DABEIBA,ANTIOQUIA,T,T,DABEIBA,POINT (759595.1848854015 1269349.8859468368),2025-11-03,17.7,8.1,25.3,46.5,258.7,410.50000000000006,0.88
52055230,257,AEROPUERTO SAN LUIS,NARIÑO,ALDANA,PATÍA,0.857083333,-77.67775,GPRS - PRECIPITACIÓN,mm,NARIÑO,ALDANA,NARIÑO,T,T,ALDANA,POINT (599001.793833644 586727.6175622372),2025-11-03,35.602000000000004,4.691,4.721,7.529,129.22899999999998,209.519,0.81
21125010,240,SANTA MARIA,HUILA,SANTA MARÍA,ALTO MAGDALENA,2.935694444,-75.58905556,PRECIPITACIÓN,mm,HUILA,SANTA MARÍA,HUILA,T,T,SANTA MARÍA,POINT (831935.1091308238 816496.231409669),2025-11-03,3.1,0.0,0.0,2.9,110.0,237.3,0.81
23197690,240,PALOGORDO,SANTANDER,GIRÓN,MEDIO MAGDALENA,6.969166667,-73.13055556,PRECIPITACIÓN,mm,SANTANDER,GIRÓN,SANTANDER,T,T,GIRÓN,POINT (1104645.2222203868 1262521.0765955248),2025-11-03,0.0,0.0,0.0,1.5,41.49999999999999,94.4,0.73
2319500207,240,SANTURBAN,SANTANDER,VETAS,MEDIO MAGDALENA,7.335194444,-72.858972222,PRECIPITACIÓN,mm,SANTANDER,VETAS,SANTANDER,T,T,VETAS,POINT (1134553.8877725988 1303078.4000756117),2025-11-03,0.0,0.0,0.0,0.3,32.099999999999994,62.7,0.66
16027120,240,SAN JAVIER/PUENTE ZULIA,NORTE DE SANTANDER,DURANIA,CATATUMBO,7.833888889,-72.65027778,PRECIPITACIÓN,mm,NORTE DE SANTANDER,DURANIA,NORTE DE SANTANDER,T,T,DURANIA,POINT (1157421.3515117327 1358315.4148726366),2025-11-03,0.0,0.0,0.0,0.0,0.0,0.0,0.61
2302500064,240,MANZANARES,CALDAS,MANZANARES,MEDIO MAGDALENA,5.265055556,-75.143055556,PRECIPITACIÓN,mm,CALDAS,MANZANARES,CALDAS,T,T,MANZANARES,POINT (881874.1700326549 1074064.4702060688),2025-11-03,0.0,0.0,42.2,65.0,170.6,398.6000000000001,0.69
21057060,240,PAICOL,HUILA,TESALIA,ALTO MAGDALENA,2.46,-75.76,PRECIPITACIÓN,mm,HUILA,TESALIA,HUILA,T,T,TESALIA,POINT (812850.308631763 763899.8984927506),2025-11-03,0.0,0.0,0.0,0.0,57.000000000000014,158.0,0.735
24055503,240,LA FUENTE,SANTANDER,PALMAR,SOGAMOSO,6.5497,-73.291925,PRECIPITACIÓN,mm,SANTANDER,PALMAR,SANTANDER,T,T,PALMAR,POINT (1086886.3778669604 1216095.4117937908),2025-11-03,0.0,0.0,1.4,1.4,45.1,128.8,0.725
23105070,240,MACEO,ANTIOQUIA,MACEO,MEDIO MAGDALENA,6.571638889,-74.79472222,PRECIPITACIÓN,mm,ANTIOQUIA,MACEO,ANTIOQUIA,T,T,MACEO,POINT (920679.1459181607 1218510.4802913403),2025-11-03,0.0,0.0,0.0,0.0,0.0,0.0,0.61
35167000,240,CORPOBOYACA - SANTA INES -AUT,BOYACÁ,AQUITANIA,META,5.545,-72.88411111,PRECIPITACIÓN,mm,BOYACÁ,AQUITANIA,BOYACÁ,T,T,AQUITANIA,POINT (1132240.2556169874 1105054.170130543),2025-11-03,0.0,0.2,0.2,0.8,4.6,18.8,0.595
24035250,240,CHITA,BOYACÁ,CHITA,SOGAMOSO,6.18778,-72.46556,PRECIPITACIÓN,mm,BOYACÁ,CHITA,BOYACÁ,T,T,CHITA,POINT (1178425.8772985435 1176274.0665615965),2025-11-03,0.0,0.0,0.0,0.0,0.0,0.0,0.61
23067050,240,GUADUERO,CUNDINAMARCA,CAPARRAPÍ,MEDIO MAGDALENA,5.192111111,-74.57291667,PRECIPITACIÓN,mm,CUNDINAMARCA,CAPARRAPÍ,CUNDINAMARCA,T,T,CAPARRAPÍ,POINT (945075.4487471711 1065918.7045170849),2025-11-03,0.9,0.0,3.5,24.6,153.5,287.4,0.865
35095130,240,LAGUNA LA PLAZA,ARAUCA,TAME,CASANARE,6.362,-72.28201667,PRECIPITACIÓN,mm,ARAUCA,TAME,ARAUCA,T,T,TAME,POINT (1198682.378984541 1195615.083892988),2025-11-03,0.0,0.0,0.0,0.0,1.1,51.0,0.555
22065040,240,SAN ANTONIO QUINTA,TOLIMA,SAN ANTONIO,SALDAÑA,3.9212,-75.46775,PRECIPITACIÓN,mm,TOLIMA,SAN ANTONIO,TOLIMA,T,T,SAN ANTONIO,POINT (845583.7186679917 925486.3065685275),2025-11-03,8.4,5.1,8.0,17.6,199.6,451.8,0.735
21205420,240,TIBAITATA,CUNDINAMARCA,MOSQUERA,ALTO MAGDALENA,4.691416667,-74.209,PRECIPITACIÓN,mm,CUNDINAMARCA,MOSQUERA,CUNDINAMARCA,T,T,MOSQUERA,POINT (985411.0700368865 1010530.5301662525),2025-11-03,1.5,0.0,0.0,0.1,35.1,102.2,0.695
24035360,240,SOCHA,SANTANDER,ENCINO,SOGAMOSO,5.985416667,-72.99702778,PRECIPITACIÓN,mm,SANTANDER,ENCINO,SANTANDER,T,T,ENCINO,POINT (1119634.134027509 1153742.4075936365),2025-11-03,0.0,0.0,0.0,0.8,9.6,55.5,0.665
2401500086,240,UNIVERSIDAD PEDAGÓGICA Y TECNOLÓGICA DE COLOMBIA TUNJA,BOYACÁ,TUNJA,SOGAMOSO,5.553611111,-73.355277778,PRECIPITACIÓN,mm,BOYACÁ,TUNJA,BOYACÁ,T,T,TUNJA,POINT (1080025.5104842952 1105922.1509408865),2025-11-03,0.0,0.0,0.0,0.0,5.2,58.00000000000001,0.695
21045010,240,BETULIA LA,HUILA,AGRADO,ALTO MAGDALENA,2.281583333,-75.70508333,PRECIPITACIÓN,mm,HUILA,AGRADO,HUILA,T,T,AGRADO,POINT (818937.3668008251 744155.6989995383),2025-11-03,0.0,0.0,0.0,0.0,15.8,73.3,0.705
23190130,240,TONA,SANTANDER,TONA,MEDIO MAGDALENA,7.199737,-72.9692,PRECIPITACIÓN,mm,SANTANDER,TONA,SANTANDER,T,T,TONA,POINT (1122417.365540927 1288063.589115799),2025-11-03,0.0,0.0,0.0,0.2,109.4,163.60000000000002,0.835
21227010,257,PIEDRAS,TOLIMA,PIEDRAS,ALTO MAGDALENA,4.535225,-74.880530556,GPRS - PRECIPITACIÓN,mm,TOLIMA,PIEDRAS,TOLIMA,T,T,PIEDRAS,POINT (910883.0578510526 993306.6416682925),2025-11-03,0.0,0.0,2.2,4.2,208.8,422.0,0.755
21206810,240,SAN BENITO,BOGOTÁ,BOGOTÁ D.C,ALTO MAGDALENA,4.56365303,-74.13845,PRECIPITACIÓN,mm,"BOGOTÁ, D.C.","BOGOTÁ, D.C.",BOGOTÁ,T,T,BOGOTÁ D.C,POINT (993237.3221794659 996401.152020673),2025-11-03,0.0,0.0,0.0,0.0,7.0,55.6,0.685
47015100,240,EL ENCANO,NARIÑO,PASTO,PUTUMAYO,1.159944444,-77.16147222,PRECIPITACIÓN,mm,NARIÑO,PASTO,NARIÑO,T,T,PASTO,POINT (656597.7060477978 620214.9524505481),2025-11-03,83.2,113.7,140.9,178.2,1028.4,3302.7,0.985
23127020,240,PUERTO ARAUJO,SANTANDER,CIMITARRA,MEDIO MAGDALENA,6.525555556,-74.08583333,PRECIPITACIÓN,mm,SANTANDER,CIMITARRA,SANTANDER,T,T,CIMITARRA,POINT (999079.1837826537 1213357.3713879592),2025-11-03,39.2,0.0,0.0,28.1,124.3,261.99999999999994,0.89
27015310,240,METROMEDELLIN,ANTIOQUIA,BELLO,NECHÍ,6.32975,-75.55211111,PRECIPITACIÓN,mm,ANTIOQUIA,BELLO,ANTIOQUIA,T,T,BELLO,POINT (836824.2863962904 1191935.123519662),2025-11-03,0.0,0.0,0.0,0.0,0.0,0.0,0.61
24025503,240,CURITI NO. 1,SANTANDER,CURITÍ,SOGAMOSO,6.598361111,-73.05297222,PRECIPITACIÓN,mm,SANTANDER,CURITÍ,SANTANDER,T,T,CURITÍ,POINT (1113306.2517785195 1221525.2581161866),2025-11-03,0.0,0.0,0.0,9.8,69.8,130.8,0.875
27015280,240,PARAMO BELMIRA,ANTIOQUIA,ENTRERRIOS,NECHÍ,6.632027778,-75.64444444,PRECIPITACIÓN,mm,ANTIOQUIA,ENTRERRÍOS,ANTIOQUIA,T,T,ENTRERRIOS,POINT (826707.7460649544 1225405.7287772167),2025-11-03,0.0,0.0,0.0,0.0,0.0,0.0,0.61
2120000132,240,COL. EL TESORO DE LA CUMBRE,BOGOTÁ,BOGOTÁ D.C,ALTO MAGDALENA,4.53531,-74.14909,PRECIPITACIÓN,mm,"BOGOTÁ, D.C.","BOGOTÁ, D.C.",BOGOTÁ,T,T,BOGOTÁ D.C,POINT (992056.3015979795 993267.0502069469),2025-11-03,2.3000000000000003,0.0,0.0,0.0,6.9,65.89999999999999,0.675
2120000135,240,COL. MANUEL ELKIN PATARROYO,BOGOTÁ,BOGOTÁ D.C,ALTO MAGDALENA,4.61823,-74.06439,PRECIPITACIÓN,mm,"BOGOTÁ, D.C.","BOGOTÁ, D.C.",BOGOTÁ,T,T,BOGOTÁ D.C,POINT (1001455.5703267993 1002436.076466976),2025-11-03,0.0,0.1,0.1,0.1,34.2,63.7,0.62
23145501,240,EL CARMEN-23145501,SANTANDER,EL CARMEN,MEDIO MAGDALENA,6.698658333,-73.51262778,PRECIPITACIÓN,mm,SANTANDER,EL CARMEN DE CHUCURÍ,SANTANDER,T,T,EL CARMEN,POINT (1062456.7320380413 1232536.5412310476),2025-11-03,0.3,9.2,9.7,9.7,113.9,283.9,0.73
21257100,240,LA NUEVA,TOLIMA,VENADILLO,ALTO MAGDALENA,4.795083333,-74.97194444,PRECIPITACIÓN,mm,TOLIMA,VENADILLO,TOLIMA,T,T,VENADILLO,POINT (900773.9453463168 1022057.5610514993),2025-11-03,0.0,0.0,0.0,0.0,0.0,0.0,0.61
23127060,240,SANTA ROSA,SANTANDER,CIMITARRA,MEDIO MAGDALENA,6.291944444,-74.09833333,PRECIPITACIÓN,mm,SANTANDER,CIMITARRA,SANTANDER,T,T,CIMITARRA,POINT (997695.5973149625 1187522.7977056527),2025-11-03,12.6,0.0,0.0,22.6,298.6,451.8,0.67
2120000137,240,COL. FRIEDRICH NAUMANN,BOGOTÁ,BOGOTÁ D.C,ALTO MAGDALENA,4.74943,-74.02285,PRECIPITACIÓN,mm,"BOGOTÁ, D.C.","BOGOTÁ, D.C.",BOGOTÁ,T,T,BOGOTÁ D.C,POINT (1006063.7393511388 1016944.6189884702),2025-11-03,0.0,0.0,0.0,0.0,54.2,119.0,0.695
23097030,240,PUERTO BERRIO,ANTIOQUIA,PUERTO BERRÍO,MEDIO MAGDALENA,6.485138889,-74.40116667,PRECIPITACIÓN,mm,ANTIOQUIA,PUERTO BERRÍO,ANTIOQUIA,T,T,PUERTO BERRÍO,POINT (964199.3032173393 1208899.1648625664),2025-11-03,0.1,0.0,0.0,5.5,116.5,232.6,0.785
2319500043,240,FLORIDABLANCA,SANTANDER,FLORIDABLANCA,MEDIO MAGDALENA,7.056797,-73.090627,PRECIPITACIÓN,mm,SANTANDER,FLORIDABLANCA,SANTANDER,T,T,FLORIDABLANCA,POINT (1109037.6551554133 1272222.6288521902),2025-11-03,0.0,0.0,1.2000000000000002,1.4,102.0,177.60000000000002,0.835
21085030,240,SAN RAFAEL,HUILA,TERUEL,ALTO MAGDALENA,2.76,-75.58,PRECIPITACIÓN,mm,HUILA,TERUEL,HUILA,T,T,TERUEL,POINT (832916.8775119414 797060.4131596411),2025-11-03,1.6,0.0,0.0,0.0,105.8,271.8,0.555
26015040,240,ARRAYANALES,CAUCA,POPAYÁN,CAUCA,2.448041111,-76.43574694,PRECIPITACIÓN,mm,CAUCA,POPAYÁN,CAUCA,T,T,POPAYÁN,POINT (737645.7016156379 762690.2748537823),2025-11-03,1.0,0.0,0.3,0.5,13.7,24.2,0.68
11110110,240,BOQUERON DE TOYO,ANTIOQUIA,CAÑASGORDAS,ATRATO - DARIÉN,6.699444444,-75.9775,PRECIPITACIÓN,mm,ANTIOQUIA,CAÑASGORDAS,ANTIOQUIA,T,T,CAÑASGORDAS,POINT (789890.7735496117 1232994.0904249868),2025-11-03,6.2,0.0,5.1,6.0,49.10000000000001,85.80000000000001,0.765
26185050,240,SANTA BARBARA,ANTIOQUIA,SANTA BÁRBARA,CAUCA,5.859583333,-75.55627778,PRECIPITACIÓN,mm,ANTIOQUIA,SANTA BÁRBARA,ANTIOQUIA,T,T,SANTA BÁRBARA,POINT (836220.558801675 1139925.1619939425),2025-11-03,21.4,0.0,34.2,37.7,116.0,199.9,0.8
2120000171,240,COLEGIO AGUSTIN FERNANDEZ,BOGOTÁ,BOGOTÁ D.C,ALTO MAGDALENA,4.72911,-74.02383,PRECIPITACIÓN,mm,"BOGOTÁ, D.C.","BOGOTÁ, D.C.",BOGOTÁ,T,T,BOGOTÁ D.C,POINT (1005955.192227155 1014697.5861889382),2025-11-03,0.4,0.0,0.0,0.0,29.2,88.60000000000001,0.73
21205012,240,UNIVERSIDAD NACIONAL,BOGOTÁ,BOGOTÁ D.C,ALTO MAGDALENA,4.63723,-74.08892,PRECIPITACIÓN,mm,"BOGOTÁ, D.C.","BOGOTÁ, D.C.",BOGOTÁ,T,T,BOGOTÁ D.C,POINT (998733.7435247547 1004537.1218210943),2025-11-03,1.0,0.0,0.0,0.0,59.8,124.79999999999998,0.645
26125061,257,AEROPUERTO EL EDEN -,QUINDÍO,ARMENIA,CAUCA,4.454722222,-75.76638889,GPRS - PRECIPITACIÓN,mm,QUINDIO,ARMENIA,QUINDÍO,T,T,ARMENIA,POINT (812531.8020394224 984569.8224589668),2025-11-03,3.114,0.0,0.916,45.596,276.289,520.247,0.705
24035502,240,CAPITANEJO 1 COLTABACO,SANTANDER,CAPITANEJO,SOGAMOSO,6.517833333,-72.69319444,PRECIPITACIÓN,mm,SANTANDER,CAPITANEJO,SANTANDER,T,T,CAPITANEJO,POINT (1153126.2663361623 1212713.3834061518),2025-11-03,0.0,0.0,0.0,0.4,45.6,146.4,0.775
16035030,240,SARDINATA,NORTE DE SANTANDER,SARDINATA,CATATUMBO,8.076666667,-72.80305556,PRECIPITACIÓN,mm,NORTE DE SANTANDER,SARDINATA,NORTE DE SANTANDER,T,T,SARDINATA,POINT (1140484.6433335382 1385117.8174312236),2025-11-03,0.0,0.0,0.0,0.0,0.0,0.0,0.61
2306500204,240,ALTO DEL VINO,CUNDINAMARCA,SAN FRANCISCO,MEDIO MAGDALENA,4.876736111,-74.287836111,PRECIPITACIÓN,mm,CUNDINAMARCA,SAN FRANCISCO,CUNDINAMARCA,T,T,SAN FRANCISCO,POINT (976670.5159289179 1031025.7960702175),2025-11-03,0.0,0.0,0.0,0.0,43.6,98.8,0.625
21206780,240,LA INDEPENDENCI,BOGOTÁ,BOGOTÁ D.C,ALTO MAGDALENA,4.619272,-74.194594,PRECIPITACIÓN,mm,"BOGOTÁ, D.C.","BOGOTÁ, D.C.",BOGOTÁ,T,T,BOGOTÁ D.C,POINT (987008.0821086097 1002552.3580201757),2025-11-03,1.3,0.0,0.0,0.0,16.5,66.8,0.65
26237100,240,OLAYA,ANTIOQUIA,LIBORINA,CAUCA,6.644944444,-75.82616667,PRECIPITACIÓN,mm,ANTIOQUIA,LIBORINA,ANTIOQUIA,T,T,LIBORINA,POINT (806609.7799338186 1226902.0202296146),2025-11-03,2.0,0.0,26.0,26.0,116.20000000000002,175.4,0.87
11115040,240,MUSINGA,ANTIOQUIA,FRONTINO,ATRATO - DARIÉN,6.777972222,-76.20333333,PRECIPITACIÓN,mm,ANTIOQUIA,FRONTINO,ANTIOQUIA,T,T,FRONTINO,POINT (764944.3819569462 1241786.7403771468),2025-11-03,31.6,0.0,10.4,12.4,163.3,261.0,0.885
35025080,240,PNN CHINGAZA,CUNDINAMARCA,LA CALERA,META,4.661,-73.82733,PRECIPITACIÓN,mm,CUNDINAMARCA,LA CALERA,CUNDINAMARCA,T,T,LA CALERA,POINT (1027758.2785975621 1007170.5601331781),2025-11-03,0.2,1.0,1.1,1.5,57.50000000000001,172.0,0.755
22077030,240,DIAMANTE EL,TOLIMA,RONCESVALLES,SALDAÑA,4.024166667000001,-75.6085,PRECIPITACIÓN,mm,TOLIMA,RONCESVALLES,TOLIMA,T,T,RONCESVALLES,POINT (829967.9541459002 936903.6398660091),2025-11-03,0.4,3.8,4.4,4.4,46.8,154.20000000000002,0.78
2120700146,240,UNIVERSIDAD DE LA SABANA,CUNDINAMARCA,CHÍA,ALTO MAGDALENA,4.85475,-74.04,PRECIPITACIÓN,mm,CUNDINAMARCA,CHÍA,CUNDINAMARCA,T,T,CHÍA,POINT (1004160.4828772158 1028590.9971010948),2025-11-03,0.0,0.2,0.2,0.6000000000000001,89.80000000000001,134.20000000000002,0.84
22070030,240,SANTA HELENA,TOLIMA,RONCESVALLES,SALDAÑA,4.124555556,-75.49952778,PRECIPITACIÓN,mm,TOLIMA,RONCESVALLES,TOLIMA,T,T,RONCESVALLES,POINT (842092.5717821437 947986.1430569937),2025-11-03,1.7,0.0,0.1,0.1,56.20000000000001,187.4,0.76
24025502,240,CHARALA-24025502,SANTANDER,CHARALÁ,SOGAMOSO,6.281416667,-73.13586944,PRECIPITACIÓN,mm,SANTANDER,CHARALÁ,SANTANDER,T,T,CHARALÁ,POINT (1104202.196636275 1186452.2023375789),2025-11-03,4.5,0.5,1.9,20.0,241.1,505.8999999999999,0.875
27015320,240,ARAGON,ANTIOQUIA,SANTA ROSA DE OSOS,NECHÍ,6.78,-75.56,PRECIPITACIÓN,mm,ANTIOQUIA,SANTA ROSA DE OSOS,ANTIOQUIA,T,T,SANTA ROSA DE OSOS,POINT (836098.2845545535 1241746.5408084965),2025-11-03,8.2,0.6,0.6,0.6,41.8,110.3,0.85
21017030,240,CASCADA SIMON BOLIVAR,HUILA,ISNOS,ALTO MAGDALENA,1.8735,-76.23172222,PRECIPITACIÓN,mm,HUILA,ISNOS,HUILA,T,T,ISNOS,POINT (760264.544695214 699076.5747608229),2025-11-03,15.4,0.0,0.0,0.0,34.800000000000004,78.00000000000001,0.745
35027001,240,PLAZA DE FERIAS,CUNDINAMARCA,CÁQUEZA,META,4.403388889000001,-73.94055556,PRECIPITACIÓN,mm,CUNDINAMARCA,CÁQUEZA,CUNDINAMARCA,T,T,CÁQUEZA,POINT (1015200.7795663438 978680.0817595514),2025-11-03,0.0,0.0,0.0,0.0,0.0,2.8000000000000003,0.595
21201200,240,ESCUELA LA UNION,BOGOTÁ,BOGOTÁ D.C,ALTO MAGDALENA,4.342640000000001,-74.18381,PRECIPITACIÓN,mm,"BOGOTÁ, D.C.","BOGOTÁ, D.C.",BOGOTÁ,T,T,BOGOTÁ D.C,POINT (988200.2462971411 971961.8591898665),2025-11-03,0.0,0.5,0.5,0.8,24.5,67.7,0.62
2401500052,240,PUENTE GUILLERMO,SANTANDER,PUENTE NACIONAL,SOGAMOSO,5.796416667,-73.726666667,PRECIPITACIÓN,mm,SANTANDER,PUENTE NACIONAL,SANTANDER,T,T,PUENTE NACIONAL,POINT (1038857.3458125872 1132736.0378345952),2025-11-03,0.0,4.2,4.2,12.8,74.2,188.6,0.805
2120000142,240,COLEGIO CARLOS PIZARRO,BOGOTÁ,BOGOTA D.C,ALTO MAGDALENA,4.63537,-74.20541,PRECIPITACIÓN,mm,"BOGOTÁ, D.C.","BOGOTÁ, D.C.",BOGOTÁ,T,T,BOGOTA D.C,POINT (985808.2531813412 1004332.7100947655),2025-11-03,0.9,0.0,0.0,0.0,23.5,70.30000000000001,0.705
2612500130,240,SALENTO,QUINDÍO,SALENTO,CAUCA,4.633475,-75.568858333,PRECIPITACIÓN,mm,QUINDIO,SALENTO,QUINDÍO,T,T,SALENTO,POINT (834504.0137165051 1004295.8981845608),2025-11-03,7.399999999999999,0.2,0.6000000000000001,17.400000000000002,246.39999999999995,406.4,0.735
21202220,240,PARAISO,BOGOTÁ,BOGOTÁ D.C,ALTO MAGDALENA,4.62789,-74.0587,PRECIPITACIÓN,mm,"BOGOTÁ, D.C.","BOGOTÁ, D.C.",BOGOTÁ,T,T,BOGOTÁ D.C,POINT (1002086.9072130928 1003504.3078746258),2025-11-03,0.0,0.3,0.3,0.3,21.0,51.3,0.575
22055020,240,MESA DE POLE,TOLIMA,ATACO,SALDAÑA,3.455777778,-75.53636111,PRECIPITACIÓN,mm,TOLIMA,ATACO,TOLIMA,T,T,ATACO,POINT (837877.0282996271 874016.7419333024),2025-11-03,3.8,0.0,8.3,12.0,134.4,314.3,0.855
2319500125,240,POLIDEPORTIVO CACHIRA,NORTE DE SANTANDER,CÁCHIRA,MEDIO MAGDALENA,7.73719,-73.04892,PRECIPITACIÓN,mm,NORTE DE SANTANDER,CÁCHIRA,NORTE DE SANTANDER,T,T,CÁCHIRA,POINT (1113472.2583338846 1347490.886987579),2025-11-03,0.0,0.0,0.0,8.4,99.4,162.8,0.81
26237040,240,PUERTO VALDIVIA,ANTIOQUIA,VALDIVIA,CAUCA,7.287116944,-75.396725,PRECIPITACIÓN,mm,ANTIOQUIA,VALDIVIA,ANTIOQUIA,T,T,VALDIVIA,POINT (854311.1841964774 1297791.4724211865),2025-11-03,41.5,0.9,5.1000000000000005,45.9,135.39999999999998,171.99999999999997,0.945
26155170,240,TESORITO FINCA,CALDAS,MANIZALES,CAUCA,5.032222222,-75.43833333,PRECIPITACIÓN,mm,CALDAS,MANIZALES,CALDAS,T,T,MANIZALES,POINT (849079.5563153167 1048373.4389032754),2025-11-03,0.8,0.0,3.9,18.2,64.30000000000001,122.1,0.77
21202250,240,DOÑA JUANA,BOGOTÁ,BOGOTÁ D.C,ALTO MAGDALENA,4.50082,-74.13739,PRECIPITACIÓN,mm,"BOGOTÁ, D.C.","BOGOTÁ, D.C.",BOGOTÁ,T,T,BOGOTÁ D.C,POINT (993354.3754620198 989452.9859306107),2025-11-03,14.9,0.0,0.0,0.2,8.5,52.6,0.895
21035040,240,LIBANO EL,HUILA,SUAZA,ALTO MAGDALENA,1.87,-75.83,PRECIPITACIÓN,mm,HUILA,SUAZA,HUILA,T,T,SUAZA,POINT (804986.1245005026 698639.5123093327),2025-11-03,1.1,0.0,0.1,0.9,7.8,48.1,0.61
1111500036,240,ABRIAQUI,ANTIOQUIA,ABRIAQUÍ,ATRATO - DARIÉN,6.6363,-76.070733333,PRECIPITACIÓN,mm,ANTIOQUIA,ABRIAQUÍ,ANTIOQUIA,T,T,ABRIAQUÍ,POINT (779548.4186044957 1226047.748897086),2025-11-03,0.0,0.0,0.0,0.0,0.0,0.0,0.61
23125080,240,OTANCHE,BOYACÁ,OTANCHE,MEDIO MAGDALENA,5.661722222,-74.18461111,PRECIPITACIÓN,mm,BOYACÁ,OTANCHE,BOYACÁ,T,T,OTANCHE,POINT (988135.0960656262 1117829.8854430143),2025-11-03,8.0,0.0,0.0,34.4,250.60000000000005,437.6000000000001,0.875
22020020,240,PENA RICA,TOLIMA,PLANADAS,SALDAÑA,3.045055556,-75.76177778,PRECIPITACIÓN,mm,TOLIMA,PLANADAS,TOLIMA,T,T,PLANADAS,POINT (812743.894196416 828621.7661717808),2025-11-03,2.0,1.2,1.3,3.4000000000000004,88.49999999999999,159.0,0.8
35197070,240,PUENTE LAS CANAS,BOYACÁ,AQUITANIA,META,5.586694444,-72.81533333,PRECIPITACIÓN,mm,BOYACÁ,SOGAMOSO,BOYACÁ,T,T,AQUITANIA,POINT (1139852.8484698974 1109681.8296158032),2025-11-03,0.0,1.2,1.2,2.0,13.1,50.7,0.6
21025030,240,ALTAMIRA EL GRIFO,HUILA,ALTAMIRA,ALTO MAGDALENA,2.079166667,-75.73622222,PRECIPITACIÓN,mm,HUILA,ALTAMIRA,HUILA,T,T,ALTAMIRA,POINT (815447.6313159954 721767.8358017744),2025-11-03,0.0,0.0,0.0,0.0,0.0,10.7,0.57
21205970,240,HACIENDA SANTA ANA,CUNDINAMARCA,NEMOCÓN,ALTO MAGDALENA,5.0905,-73.88125,PRECIPITACIÓN,mm,CUNDINAMARCA,NEMOCÓN,CUNDINAMARCA,T,T,NEMOCÓN,POINT (1021761.7765449164 1054664.0416024837),2025-11-03,0.0,0.0,0.0,0.0,0.0,0.0,0.61
27015190,240,GUAYABITO,ANTIOQUIA,SANTO DOMINGO,NECHÍ,6.540388889,-75.14675,PRECIPITACIÓN,mm,ANTIOQUIA,SANTO DOMINGO,ANTIOQUIA,T,T,SANTO DOMINGO,POINT (881735.301961131 1215123.4674707185),2025-11-03,3.9,7.0,7.0,70.7,346.1,550.5000000000001,0.88
21206900,240,LA ESPERANZA USME,BOGOTÁ,BOGOTÁ D.C,META,4.44914,-74.10792,PRECIPITACIÓN,mm,"BOGOTÁ, D.C.","BOGOTÁ, D.C.",BOGOTÁ,T,T,BOGOTÁ D.C,POINT (996624.6760051949 983737.9549759204),2025-11-03,0.6000000000000001,0.0,0.1,4.7,19.800000000000004,114.5,0.65
27027060,240,BRISAS DEL NECHI,ANTIOQUIA,YARUMAL,NECHÍ,6.939694444,-75.38083333,PRECIPITACIÓN,mm,ANTIOQUIA,YARUMAL,ANTIOQUIA,T,T,YARUMAL,POINT (855958.2142717023 1259354.7647516245),2025-11-03,0.0,0.0,0.0,0.0,33.800000000000004,33.800000000000004,0.515
2620500209,240,ACUEDUCTO ARMENIA,ANTIOQUIA,ARMENIA,CAUCA,6.161666667,-75.775805556,PRECIPITACIÓN,mm,ANTIOQUIA,ARMENIA,ANTIOQUIA,T,T,ARMENIA,POINT (812004.2091400571 1173414.797675517),2025-11-03,5.3,0.1,22.200000000000003,22.9,84.89999999999999,185.5,0.8
2120000170,240,COLEGIO SIMON RODRIGUEZ SEDE C,BOGOTÁ,BOGOTÁ D.C,ALTO MAGDALENA,4.6405,-74.05435,PRECIPITACIÓN,mm,"BOGOTÁ, D.C.","BOGOTÁ, D.C.",BOGOTÁ,T,T,BOGOTÁ D.C,POINT (1002569.5332556269 1004898.7552689358),2025-11-03,0.0,0.0,0.0,0.0,6.1,38.7,0.625
27035050,240,SENA - EL BAGRE,ANTIOQUIA,EL BAGRE,NECHÍ,7.584666667,-74.800694444,PRECIPITACIÓN,mm,ANTIOQUIA,EL BAGRE,ANTIOQUIA,T,T,EL BAGRE,POINT (920192.8753776448 1330552.0646386286),2025-11-03,20.3,3.3999999999999995,10.9,22.7,184.70000000000005,462.7,0.92
24035505,240,JERICÓ-24035505,BOYACÁ,JERICÓ,SOGAMOSO,6.140444444,-72.59033333,PRECIPITACIÓN,mm,BOYACÁ,JERICÓ,BOYACÁ,T,T,JERICÓ,POINT (1164626.1858387 1170997.3507955617),2025-11-03,0.0,0.0,0.0,0.8,20.7,67.0,0.705
2620500211,240,EL PLAN,ANTIOQUIA,FREDONIA,CAUCA,5.924716667,-75.667316667,PRECIPITACIÓN,mm,ANTIOQUIA,FREDONIA,ANTIOQUIA,T,T,FREDONIA,POINT (823940.1024177356 1147164.3659624155),2025-11-03,5.3,0.0,15.6,17.1,160.10000000000002,292.3,0.76
2613500126,240,POTREROS,RISARALDA,SANTA ROSA DE CABAL,CAUCA,4.885680556,-75.558080556,PRECIPITACIÓN,mm,RISARALDA,SANTA ROSA DE CABAL,RISARALDA,T,T,SANTA ROSA DE CABAL,POINT (835760.1272752318 1032192.014342071),2025-11-03,0.2,1.1,2.2,2.7,68.2,193.2,0.705
21205710,240,JARDIN BOTANICO,BOGOTÁ,BOGOTÁ D.C,ALTO MAGDALENA,4.669333333,-74.10266667,PRECIPITACIÓN,mm,"BOGOTÁ, D.C.","BOGOTÁ, D.C.",BOGOTÁ,T,T,BOGOTÁ D.C,POINT (997208.573491391 1008087.1989255693),2025-11-03,4.0,0.0,0.0,0.0,54.8,136.70000000000002,0.655
35215030,240,PISBA,BOYACÁ,PISBA,META,5.720555556,-72.48847222,PRECIPITACIÓN,mm,BOYACÁ,PISBA,BOYACÁ,T,T,PISBA,POINT (1176037.8296762267 1124578.2560625563),2025-11-03,0.9,2.5,3.4,15.2,32.300000000000004,149.60000000000002,0.645
23085270,240,AEROPUERTO J.M. CORDOVA,ANTIOQUIA,RIONEGRO,MEDIO MAGDALENA,6.1686111,-75.426111111,PRECIPITACIÓN,mm,ANTIOQUIA,RIONEGRO,ANTIOQUIA,T,T,RIONEGRO,POINT (850724.0849914441 1174072.445884956),2025-11-03,16.0,5.6000000000000005,8.0,18.4,344.4000000000001,536.4000000000001,0.875
35087020,240,PAEZ,BOYACÁ,CAMPOHERMOSO,META,5.082611111,-73.068416667,PRECIPITACIÓN,mm,BOYACÁ,CAMPOHERMOSO,BOYACÁ,T,T,CAMPOHERMOSO,POINT (1111898.5083858406 1053875.6608351434),2025-11-03,0.0,19.7,19.7,19.7,92.70000000000002,225.8,0.685
2311500200,240,PUERTO SERVIEZ,BOYACÁ,PUERTO BOYACÁ,MEDIO MAGDALENA,6.22136,-74.56166,PRECIPITACIÓN,mm,BOYACÁ,PUERTO BOYACÁ,BOYACÁ,T,T,PUERTO BOYACÁ,POINT (946419.1142735388 1179741.530375554),2025-11-03,0.6000000000000001,2.2,4.7,4.7,8.1,17.1,0.645
2120700038,240,SAN FRANCISCO,BOGOTÁ,BOGOTÁ D.C,ALTO MAGDALENA,4.56235,-74.148869,PRECIPITACIÓN,mm,"BOGOTÁ, D.C.","BOGOTÁ, D.C.",BOGOTÁ,T,T,BOGOTÁ D.C,POINT (992081.1220626675 996257.1673662185),2025-11-03,0.0,0.0,0.0,0.0,6.900000000000001,58.00000000000001,0.74
35197020,240,VADO HONDO,BOYACÁ,AQUITANIA,META,5.506805556,-72.75480556,PRECIPITACIÓN,mm,BOYACÁ,AQUITANIA,BOYACÁ,T,T,AQUITANIA,POINT (1146580.38460646 1100859.7515183622),2025-11-03,0.0,0.0,0.0,0.1,0.8,3.5000000000000004,0.6
2120000175,240,COLEGIO LA FELICIDAD,BOGOTÁ,BOGOTÁ D.C,ALTO MAGDALENA,4.656,-74.131111111,PRECIPITACIÓN,mm,"BOGOTÁ, D.C.","BOGOTÁ, D.C.",BOGOTÁ,T,T,BOGOTÁ D.C,POINT (994052.4789290474 1006612.9533947142),2025-11-03,1.1,0.0,0.0,0.0,19.500000000000004,65.8,0.715
24037190,240,SAN RAFAEL,BOYACÁ,TIBASOSA,SOGAMOSO,5.807611111,-73.01380556,PRECIPITACIÓN,mm,BOYACÁ,TIBASOSA,BOYACÁ,T,T,TIBASOSA,POINT (1117813.7462331029 1134072.6377801253),2025-11-03,0.0,0.0,0.0,6.4,27.4,115.6,0.605
52077010,240,PUENTE PUSMEO,NARIÑO,POLICARPA,PATÍA,1.624055556,-77.47891667,PRECIPITACIÓN,mm,NARIÑO,POLICARPA,NARIÑO,T,T,POLICARPA,POINT (621284.3340610071 671665.6650009488),2025-11-03,0.0,0.0,0.0,0.0,0.0,0.0,0.61
21235030,240,UNIVERSIDAD DE CUNDINAMARCA,CUNDINAMARCA,GIRARDOT,ALTO MAGDALENA,4.305333333,-74.80811111,PRECIPITACIÓN,mm,CUNDINAMARCA,GIRARDOT,CUNDINAMARCA,T,T,GIRARDOT,POINT (918895.4089334845 967874.4582443539),2025-11-03,0.0,0.0,0.8999999999999999,1.7999999999999998,42.0,152.39999999999998,0.775
22045010,240,DEMOSTRACION GRANJA,TOLIMA,CHAPARRAL,SALDAÑA,3.722444444,-75.50344444,PRECIPITACIÓN,mm,TOLIMA,CHAPARRAL,TOLIMA,T,T,CHAPARRAL,POINT (841581.7999809055 903507.9467633787),2025-11-03,34.2,0.0,0.6000000000000001,30.4,165.4,309.6,0.915
21195120,240,ITA VALSALICE,CUNDINAMARCA,FUSAGASUGÁ,ALTO MAGDALENA,4.39292,-74.39272,PRECIPITACIÓN,mm,CUNDINAMARCA,FUSAGASUGÁ,CUNDINAMARCA,T,T,FUSAGASUGÁ,POINT (965012.9730567769 977528.4004168937),2025-11-03,8.6,0.0,0.0,0.0,96.0,254.8,0.595
2120700154,240,MOLINOS,BOGOTÁ,BOGOTÁ D.C,ALTO MAGDALENA,4.55322,-74.10789,PRECIPITACIÓN,mm,"BOGOTÁ, D.C.","BOGOTÁ, D.C.",BOGOTÁ,T,T,BOGOTÁ D.C,POINT (996628.4845548929 995247.2389084495),2025-11-03,0.0,0.0,0.0,0.0,11.3,86.0,0.72
21205660,240,MERCEDES,CUNDINAMARCA,ANAPOIMA,ALTO MAGDALENA,4.5791,-74.52318,PRECIPITACIÓN,mm,CUNDINAMARCA,ANAPOIMA,CUNDINAMARCA,T,T,ANAPOIMA,POINT (950544.8180435643 998124.3682711511),2025-11-03,2.6,0.0,0.0,0.0,52.6,184.4,0.72
2120000130,240,COL. PAULO FREIRE,BOGOTÁ,BOGOTÁ D.C,ALTO MAGDALENA,4.5328,-74.11684,PRECIPITACIÓN,mm,"BOGOTÁ, D.C.","BOGOTÁ, D.C.",BOGOTÁ,T,T,BOGOTÁ D.C,POINT (995635.1755250228 992989.2173790678),2025-11-03,1.1,0.0,0.0,0.0,7.200000000000001,52.5,0.665
3505500121,240,PIDEMONTE CHINGAZA,CUNDINAMARCA,MEDINA,META,4.517247222,-73.439813889,PRECIPITACIÓN,mm,CUNDINAMARCA,MEDINA,CUNDINAMARCA,T,T,MEDINA,POINT (1070770.185111823 991300.2731130079),2025-11-03,0.0,1.5,1.5,1.5,31.3,75.8,0.67
24015300,240,VILLA DE LEIVA,BOYACÁ,VILLA DE LEYVA,SOGAMOSO,5.64326,-73.51774,PRECIPITACIÓN,mm,BOYACÁ,VILLA DE LEYVA,BOYACÁ,T,T,VILLA DE LEYVA,POINT (1062014.0563969666 1115816.9350384874),2025-11-03,0.0,0.0,0.0,0.0,1.4,3.2,0.615
23190380,240,PALMAS,SANTANDER,LEBRIJA,MEDIO MAGDALENA,7.211083333,-73.21788889,PRECIPITACIÓN,mm,SANTANDER,LEBRIJA,SANTANDER,T,T,LEBRIJA,POINT (1094943.948040025 1289259.4049974994),2025-11-03,0.2,0.2,0.3,0.3,125.79999999999998,195.1,0.825
27015260,240,LA SALADA,ANTIOQUIA,CALDAS,NECHÍ,6.048361111,-75.62466667,PRECIPITACIÓN,mm,ANTIOQUIA,CALDAS,ANTIOQUIA,T,T,CALDAS,POINT (828702.9615270039 1160829.3122652671),2025-11-03,5.4,1.8,5.9,8.3,178.4,327.90000000000003,0.82
2403500041,240,DUITAMA,BOYACÁ,DUITAMA,SOGAMOSO,5.78755,-73.05155,PRECIPITACIÓN,mm,BOYACÁ,DUITAMA,BOYACÁ,T,T,DUITAMA,POINT (1113636.8055013588 1131846.1010958639),2025-11-03,0.0,0.0,0.0,7.8,17.700000000000003,96.4,0.66
21015020,240,SEVILLA,HUILA,PITALITO,ALTO MAGDALENA,1.824833333,-76.13027778,PRECIPITACIÓN,mm,HUILA,PITALITO,HUILA,T,T,PITALITO,POINT (771552.7108124068 693678.2030094711),2025-11-03,16.5,0.2,0.2,1.1,32.4,68.49999999999999,0.77
52035040,240,VIENTO LIBRE,NARIÑO,TAMINANGO,PATÍA,1.62,-77.34,PRECIPITACIÓN,mm,NARIÑO,TAMINANGO,NARIÑO,T,T,TAMINANGO,POINT (636767.8851778836 671190.939721648),2025-11-03,8.7,0.4,0.4,0.5,63.6,123.0,0.715
21115100,240,PALACIO-VEGALARGA,HUILA,NEIVA,ALTO MAGDALENA,2.942638889,-75.06638889,PRECIPITACIÓN,mm,HUILA,NEIVA,HUILA,T,T,NEIVA,POINT (890056.9879981675 817199.2794741665),2025-11-03,13.0,0.0,0.0,0.0,33.39999999999999,67.30000000000001,0.74
24017640,240,LA CEIBA,SANTANDER,SOCORRO,SOGAMOSO,6.448888889,-73.30694444,PRECIPITACIÓN,mm,SANTANDER,SOCORRO,SANTANDER,T,T,SOCORRO,POINT (1085242.0851709556 1204943.2993455294),2025-11-03,0.0,0.0,3.2,4.4,74.00000000000001,170.80000000000004,0.855
25025330,240,COLEGIO AGROPECUARIO PAILITAS,CESAR,PAILITAS,CESAR,8.954222222,-73.63008333,PRECIPITACIÓN,mm,CESAR,PAILITAS,CESAR,T,T,PAILITAS,POINT (1049204.547969613 1481984.632240277),2025-11-03,1.0,0.0,0.0,0.0,1.0,1.4,0.655
23125100,240,BUENAVISTA,BOYACÁ,BUENAVISTA,MEDIO MAGDALENA,5.514916667,-73.94311111,PRECIPITACIÓN,mm,BOYACÁ,BUENAVISTA,BOYACÁ,T,T,BUENAVISTA,POINT (1014892.2067500962 1101596.0060953554),2025-11-03,0.0,0.0,0.0,1.2000000000000002,44.8,150.60000000000002,0.775
21057050,240,VEGA EL SALADO,HUILA,LA PLATA,ALTO MAGDALENA,2.331444444,-75.94216667,PRECIPITACIÓN,mm,HUILA,LA PLATA,HUILA,T,T,LA PLATA,POINT (792561.0670351001 749704.0961017766),2025-11-03,0.0,0.0,0.0,23.6,45.00000000000001,91.4,0.75
21130050,240,PEREZ HACIENDA,HUILA,AIPE,ALTO MAGDALENA,3.243555556,-75.25594444,PRECIPITACIÓN,mm,HUILA,AIPE,HUILA,T,T,AIPE,POINT (869016.554615508 850501.4084299003),2025-11-03,0.0,0.0,0.0,0.0,44.8,93.7,0.61
21215160,240,CERROS NOROCCIDENTALES,TOLIMA,IBAGUÉ,ALTO MAGDALENA,4.470361111,-75.24386111,PRECIPITACIÓN,mm,TOLIMA,IBAGUÉ,TOLIMA,T,T,IBAGUÉ,POINT (870545.6264724648 986187.2484154592),2025-11-03,0.0,0.0,0.0,0.0,0.0,0.0,0.61
11117010,240,EL AÑIL,ANTIOQUIA,URAMITA,ATRATO - DARIÉN,6.873888889,-76.14958333,PRECIPITACIÓN,mm,ANTIOQUIA,URAMITA,ANTIOQUIA,T,T,URAMITA,POINT (770935.81074726 1252375.2317952462),2025-11-03,37.6,0.0,3.7,14.1,88.50000000000001,152.09999999999997,0.91
24015517,240,CHIMA-24015517,SANTANDER,CHIMA,SOGAMOSO,6.354969444,-73.3683,PRECIPITACIÓN,mm,SANTANDER,CHIMA,SANTANDER,T,T,CHIMA,POINT (1078468.727697034 1194546.301471048),2025-11-03,29.2,0.0,26.9,34.0,156.70000000000002,280.70000000000005,0.925
24065010,240,HACIENDA LAS BRISAS,SANTANDER,PUERTO WILCHES,SOGAMOSO,7.246111111,-73.79,PRECIPITACIÓN,mm,SANTANDER,PUERTO WILCHES,SANTANDER,T,T,PUERTO WILCHES,POINT (1031751.4462073956 1293053.8323115334),2025-11-03,25.2,0.4,0.4,2.2,85.19999999999999,302.2,0.65
27011100,240,LAS BRISAS,ANTIOQUIA,SEGOVIA,NECHÍ,7.158805556,-74.82183333,PRECIPITACIÓN,mm,ANTIOQUIA,SEGOVIA,ANTIOQUIA,T,T,SEGOVIA,POINT (917781.4584635671 1283455.0673818886),2025-11-03,10.9,0.7000000000000001,0.8,9.6,165.8,381.2,0.775
26207030,240,PUENTE IGLESIAS,ANTIOQUIA,FREDONIA,CAUCA,5.829944444,-75.7055,PRECIPITACIÓN,mm,ANTIOQUIA,FREDONIA,ANTIOQUIA,T,T,FREDONIA,POINT (819679.9503212366 1136691.9842945682),2025-11-03,14.0,0.0,10.4,57.6,172.6,251.0,0.875
21185090,240,NATAIMA,TOLIMA,ESPINAL,ALTO MAGDALENA,4.188138889,-74.96047222,PRECIPITACIÓN,mm,TOLIMA,ESPINAL,TOLIMA,T,T,ESPINAL,POINT (901965.7233161746 954931.4031549712),2025-11-03,4.4,0.4,0.7000000000000001,0.8,101.6,369.1,0.585
2604500039,240,CORINTO,CAUCA,CORINTO,CAUCA,3.18,-76.25,PRECIPITACIÓN,mm,CAUCA,CORINTO,CAUCA,T,T,CORINTO,POINT (758471.2762882065 843651.46035524),2025-11-03,2.4,0.0,5.4,24.6,192.8,250.2,0.79
3502500135,257,GUAYABETAL POLLO OLIMPICO,CUNDINAMARCA,GUAYABETAL,META,4.22553,-73.81481,GPRS - PRECIPITACIÓN,mm,CUNDINAMARCA,GUAYABETAL,CUNDINAMARCA,T,T,GUAYABETAL,POINT (1029164.5390322116 959015.8775544795),2025-11-03,0.0,0.0,0.0,0.0,3.8,3.8,0.655
2120000124,240,COL RAFAEL URIBE,BOGOTÁ,BOGOTÁ D.C,ALTO MAGDALENA,4.583176,-74.132461,PRECIPITACIÓN,mm,"BOGOTÁ, D.C.","BOGOTÁ, D.C.",BOGOTÁ,T,T,BOGOTÁ D.C,POINT (993902.080421558 998559.975624599),2025-11-03,0.0,0.0,0.0,0.0,11.5,80.7,0.71
2120000101,240,ALTOS DE LA ESTANCIA,BOGOTÁ,BOGOTÁ D.C,ALTO MAGDALENA,4.58074,-74.17828,PRECIPITACIÓN,mm,"BOGOTÁ, D.C.","BOGOTÁ, D.C.",BOGOTÁ,T,T,BOGOTÁ D.C,POINT (988817.6909510408 998291.1511190975),2025-11-03,0.2,0.0,0.0,0.0,17.0,49.8,0.535
26175040,240,HACIENDA TUNEZ,ANTIOQUIA,FREDONIA,CAUCA,5.80025,-75.65097222,PRECIPITACIÓN,mm,ANTIOQUIA,FREDONIA,ANTIOQUIA,T,T,FREDONIA,POINT (825711.9500757675 1133389.8344588997),2025-11-03,6.6,0.0,21.4,52.7,245.3,330.0,0.815
27037020,240,RETIRO EL,ANTIOQUIA,EL BAGRE,NECHÍ,7.56,-74.799,PRECIPITACIÓN,mm,ANTIOQUIA,EL BAGRE,ANTIOQUIA,T,T,EL BAGRE,POINT (920375.3476758214 1327823.5687332388),2025-11-03,13.4,0.2,25.0,29.8,211.40000000000003,467.0,0.8
24057070,240,PUENTE FERROCARRIL CIENEGA,SANTANDER,BARRANCABERMEJA,SOGAMOSO,7.109444444,-73.85472222,PRECIPITACIÓN,mm,SANTANDER,BARRANCABERMEJA,SANTANDER,T,T,BARRANCABERMEJA,POINT (1024611.0361538911 1277935.5188807617),2025-11-03,0.0,0.0,0.0,0.0,0.0,0.2,0.61
35060210,240,CLARAVAL,CUNDINAMARCA,JUNÍN,META,4.65025,-73.64144444,PRECIPITACIÓN,mm,CUNDINAMARCA,JUNÍN,CUNDINAMARCA,T,T,JUNÍN,POINT (1048384.0989463028 1005991.8108131818),2025-11-03,0.0,2.2,2.2,2.8000000000000003,76.3,192.9,0.825
26085170,240,BASE AEREA MARCO FIDEL SUAREZ,VALLE DEL CAUCA,FLORIDA,CAUCA,3.360416667,-76.299722222,PRECIPITACIÓN,mm,VALLE DEL CAUCA,FLORIDA,VALLE DEL CAUCA,T,T,FLORIDA,POINT (752984.8158228584 863628.344175499),2025-11-03,0.4,0.0,0.0,0.0,17.700000000000003,40.3,0.56
23175020,240,AEROPUERTO OTU,ANTIOQUIA,REMEDIOS,MEDIO MAGDALENA,7.01175,-74.71630556,PRECIPITACIÓN,mm,ANTIOQUIA,REMEDIOS,ANTIOQUIA,T,T,REMEDIOS,POINT (929416.2492192179 1267173.4993042918),2025-11-03,7.2,0.0,0.0,2.0,155.0,303.6,0.78
27025030,240,ANORI,ANTIOQUIA,ANORÍ,NECHÍ,7.0719,-75.1505,PRECIPITACIÓN,mm,ANTIOQUIA,ANORÍ,ANTIOQUIA,T,T,ANORÍ,POINT (881450.9733680899 1273914.187351509),2025-11-03,21.0,0.0,0.0,0.0,254.0,320.7,0.655
2401500080,240,PANELAS,BOYACÁ,MOTAVITA,SOGAMOSO,5.634380556,-73.386469444,PRECIPITACIÓN,mm,BOYACÁ,MOTAVITA,BOYACÁ,T,T,MOTAVITA,POINT (1076558.698169094 1114850.5421681595),2025-11-03,0.0,0.6000000000000001,0.6000000000000001,4.0,13.599999999999998,122.6,0.665
11117050,240,DABEIBA 2,ANTIOQUIA,DABEIBA,ATRATO - DARIÉN,7.010278056,-76.288333333,PRECIPITACIÓN,mm,ANTIOQUIA,DABEIBA,ANTIOQUIA,T,T,DABEIBA,POINT (755660.4668163375 1267538.2366132457),2025-11-03,16.400000000000002,0.0,6.4,18.6,233.6,300.40000000000003,0.86
23190700,240,PIEDECUESTA GRANJA,SANTANDER,PIEDECUESTA,MEDIO MAGDALENA,6.99333,-73.06778,PRECIPITACIÓN,mm,SANTANDER,PIEDECUESTA,SANTANDER,T,T,PIEDECUESTA,POINT (1111577.3393625922 1265208.0969683032),2025-11-03,0.0,0.0,0.0,4.6,90.8,179.79999999999998,0.84
2119500111,240,BASE AEREA MELGAR,TOLIMA,MELGAR,ALTO MAGDALENA,4.21,-74.64,PRECIPITACIÓN,mm,TOLIMA,MELGAR,TOLIMA,T,T,MELGAR,POINT (937550.501073765 957316.1440442256),2025-11-03,5.0,0.0,0.0,55.0,248.6,412.4000000000001,0.79
21215190,240,CAJAMARCA,TOLIMA,CAJAMARCA,ALTO MAGDALENA,4.435666667,-75.50036111,PRECIPITACIÓN,mm,TOLIMA,CAJAMARCA,TOLIMA,T,T,CAJAMARCA,POINT (842063.810719002 982399.6824842991),2025-11-03,5.4,0.1,8.6,8.7,79.9,198.2,0.855
35160000,240,LAS CINTAS,BOYACÁ,SOGAMOSO,META,5.614277778,-72.86747222,PRECIPITACIÓN,mm,BOYACÁ,SOGAMOSO,BOYACÁ,T,T,SOGAMOSO,POINT (1134068.542339786 1112720.6630566646),2025-11-03,0.0,1.1,1.1,2.7,17.700000000000003,78.70000000000002,0.57
23037010,240,PUERTO SALGAR,CUNDINAMARCA,PUERTO SALGAR,MEDIO MAGDALENA,5.469666667,-74.66216667,PRECIPITACIÓN,mm,CUNDINAMARCA,PUERTO SALGAR,CUNDINAMARCA,T,T,PUERTO SALGAR,POINT (935209.343501708 1096621.8914976665),2025-11-03,0.0,0.0,0.0,0.0,0.4,0.4,0.61
2120000140,240,FUNDACIÓN ANA RESTREPO DEL CORRAL,BOGOTÁ,BOGOTÁ D.C,ALTO MAGDALENA,4.7055,-74.02263,PRECIPITACIÓN,mm,"BOGOTÁ, D.C.","BOGOTÁ, D.C.",BOGOTÁ,T,T,BOGOTÁ D.C,POINT (1006088.5295900487 1012086.7594333764),2025-11-03,0.0,0.0,0.0,0.0,19.0,89.6,0.695
2120000123,240,COL. LA CHUCUA,BOGOTÁ,BOGOTÁ D.C,ALTO MAGDALENA,4.60356,-74.148507,PRECIPITACIÓN,mm,"BOGOTÁ, D.C.","BOGOTÁ, D.C.",BOGOTÁ,T,T,BOGOTÁ D.C,POINT (992121.7441173986 1000814.2249290779),2025-11-03,2.3000000000000003,0.0,0.0,0.1,21.700000000000003,82.6,0.66
21095010,240,JUNCAL EL,HUILA,PALERMO,ALTO MAGDALENA,2.828805556,-75.33116667,PRECIPITACIÓN,mm,HUILA,PALERMO,HUILA,T,T,PALERMO,POINT (860601.1222520838 804638.4846496419),2025-11-03,0.0,0.0,0.0,1.2000000000000002,49.3,81.50000000000001,0.76
52025090,240,LA SIERRA,CAUCA,LA SIERRA,PATÍA,2.193833333,-76.75033333,PRECIPITACIÓN,mm,CAUCA,LA SIERRA,CAUCA,T,T,LA SIERRA,POINT (702570.7546256642 734615.9717033546),2025-11-03,15.8,3.4,3.6,14.9,130.1,236.8,0.805
2120700037,240,CASAS FISCALES ESCUELA DE ARTILLERÍA,BOGOTÁ,BOGOTÁ D.C,ALTO MAGDALENA,4.556439,-74.125173,PRECIPITACIÓN,mm,"BOGOTÁ, D.C.","BOGOTÁ, D.C.",BOGOTÁ,T,T,BOGOTÁ D.C,POINT (994710.6042943943 995603.3038642444),2025-11-03,0.2,0.0,0.0,0.0,8.2,81.1,0.72
23147020,240,PUENTE FERROCARRIL OPÓN,SANTANDER,SIMACOTA,MEDIO MAGDALENA,6.773611111,-73.935,PRECIPITACIÓN,mm,SANTANDER,SIMACOTA,SANTANDER,T,T,SIMACOTA,POINT (1015753.927108216 1240791.9319249224),2025-11-03,5.1000000000000005,0.0,0.0,69.6,375.19999999999993,649.6999999999998,0.78
23067040,240,PUERTO LIBRE,CUNDINAMARCA,PUERTO SALGAR,MEDIO MAGDALENA,5.759222222,-74.63175,PRECIPITACIÓN,mm,CUNDINAMARCA,PUERTO SALGAR,CUNDINAMARCA,T,T,PUERTO SALGAR,POINT (938610.4677220443 1128640.651439215),2025-11-03,0.0,0.0,0.0,0.0,0.0,0.0,0.61
21255090,240,ARMERO GRANJA,TOLIMA,ARMERO,ALTO MAGDALENA,5.0,-74.899991667,PRECIPITACIÓN,mm,TOLIMA,ARMERO,TOLIMA,T,T,ARMERO,POINT (908784.5101821531 1044710.0493688462),2025-11-03,0.0,0.0,0.0,4.8,90.4,289.9000000000001,0.71
2120500135,240,UNIVERSIDAD DE LA SABANA,CUNDINAMARCA,CHÍA,ALTO MAGDALENA,4.85414,-74.03269,PRECIPITACIÓN,mm,CUNDINAMARCA,CHÍA,CUNDINAMARCA,T,T,CHÍA,POINT (1004971.3331101603 1028523.5912215777),2025-11-03,0.0,0.2,0.2,0.2,73.4,112.4,0.725
24027070,240,MERIDA,SANTANDER,PÁRAMO,SOGAMOSO,6.444722222,-73.15833333,PRECIPITACIÓN,mm,SANTANDER,PÁRAMO,SANTANDER,T,T,PÁRAMO,POINT (1101684.0024556872 1204509.6883341225),2025-11-03,0.0,0.0,0.6,2.8000000000000003,180.40000000000003,540.6,0.73
26075120,240,LA DIANA,VALLE DEL CAUCA,FLORIDA,CAUCA,3.314055556,-76.18569444,PRECIPITACIÓN,mm,VALLE DEL CAUCA,FLORIDA,VALLE DEL CAUCA,T,T,FLORIDA,POINT (765654.7113634571 858470.248158641),2025-11-03,0.3,1.6,23.4,25.4,91.8,117.8,0.85
44015060,240,ACUEDUCTO MOCOA,PUTUMAYO,MOCOA,CAQUETÁ,1.157333333,-76.65183333,PRECIPITACIÓN,mm,PUTUMAYO,MOCOA,PUTUMAYO,T,T,MOCOA,POINT (713388.4549923437 619869.1211296213),2025-11-03,13.8,0.3,7.3,42.2,144.60000000000002,321.2,0.845
2120000173,240,COLEGIO CARLO FEDERICI,BOGOTÁ,BOGOTÁ D.C,ALTO MAGDALENA,4.67168,-74.15894,PRECIPITACIÓN,mm,"BOGOTÁ, D.C.","BOGOTÁ, D.C.",BOGOTÁ,T,T,BOGOTÁ D.C,POINT (990964.9343001279 1008347.1702459971),2025-11-03,3.2,0.0,0.0,0.0,34.00000000000001,101.1,0.65
26125300,240,CALARCA,QUINDÍO,CALARCÁ,CAUCA,4.528305556,-75.59638889,PRECIPITACIÓN,mm,QUINDIO,CALARCÁ,QUINDÍO,T,T,CALARCÁ,POINT (831423.5904160145 992668.5415737415),2025-11-03,13.4,0.0,0.6000000000000001,0.6000000000000001,95.2,141.79999999999998,0.74
35025060,240,LA BOLSA,CUNDINAMARCA,CHOACHÍ,META,4.575416667,-73.98141667,PRECIPITACIÓN,mm,CUNDINAMARCA,CHOACHÍ,CUNDINAMARCA,T,T,CHOACHÍ,POINT (1010662.9720499888 997702.4176813959),2025-11-03,0.0,0.6000000000000001,0.6000000000000001,1.6,20.0,50.2,0.445
35020300,240,GUTIERREZ,CUNDINAMARCA,GUTIÉRREZ,META,4.253916667000001,-74.00269444,PRECIPITACIÓN,mm,CUNDINAMARCA,GUTIÉRREZ,CUNDINAMARCA,T,T,GUTIÉRREZ,POINT (1008305.4102244992 962150.3608301543),2025-11-03,2.1,0.0,0.0,0.0,23.599999999999994,116.5,0.735
24017600,240,MONIQUIRA,BOYACÁ,MONIQUIRÁ,SOGAMOSO,5.878138889,-73.57025,PRECIPITACIÓN,mm,BOYACÁ,MONIQUIRÁ,BOYACÁ,T,T,MONIQUIRÁ,POINT (1056173.4792359148 1141786.8034300467),2025-11-03,4.800000000000001,0.2,0.2,16.2,166.60000000000002,364.6,0.745
26075150,240,AEROPUERTO A. BONILLA,VALLE DEL CAUCA,PALMIRA,CAUCA,3.532991667,-76.3825,PRECIPITACIÓN,mm,VALLE DEL CAUCA,PALMIRA,VALLE DEL CAUCA,T,T,PALMIRA,POINT (743824.8081850258 882748.1679363642),2025-11-03,14.8,0.0,0.0,0.0,73.0,276.9,0.64
21245140,240,SANTA ISABEL,TOLIMA,SANTA ISABEL,ALTO MAGDALENA,4.711861111,-75.09445556,PRECIPITACIÓN,mm,TOLIMA,SANTA ISABEL,TOLIMA,T,T,SANTA ISABEL,POINT (887168.0650074128 1012872.2038545184),2025-11-03,8.2,0.0,5.4,5.800000000000001,98.20000000000002,263.4,0.695
47017070,240,EL EDEN,PUTUMAYO,SANTIAGO,PUTUMAYO,1.106305556,-76.985,PRECIPITACIÓN,mm,PUTUMAYO,SANTIAGO,PUTUMAYO,T,T,SANTIAGO,POINT (676259.5844989875 614255.3210469835),2025-11-03,4.8,0.2,2.4000000000000004,3.8000000000000007,87.60000000000002,194.8,0.775
35075030,240,VILLA LUISA,BOYACÁ,JENESANO,META,5.422222222,-73.34941667,PRECIPITACIÓN,mm,BOYACÁ,JENESANO,BOYACÁ,T,T,JENESANO,POINT (1080692.6353824993 1091392.2212444434),2025-11-03,0.0,0.0,0.0,0.0,7.000000000000001,33.8,0.64
26055120,240,UNIVERSIDAD DEL VALLE,VALLE DEL CAUCA,CALI,CAUCA,3.378,-76.53388889,PRECIPITACIÓN,mm,VALLE DEL CAUCA,CALI,VALLE DEL CAUCA,T,T,CALI,POINT (726945.2110187162 865636.8297743208),2025-11-03,2.8,0.0,0.0,0.0,111.6,255.2,0.55
24015510,240,CONFINES-,SANTANDER,CONFINES,SOGAMOSO,6.354991667,-73.23896667,PRECIPITACIÓN,mm,SANTANDER,CONFINES,SANTANDER,T,T,CONFINES,POINT (1092779.4475170826 1194570.1555344863),2025-11-03,0.0,0.0,8.4,12.7,115.5,250.2,0.805
2120000120,240,COL. GUSTAVO MORALES,BOGOTÁ,BOGOTÁ D.C,ALTO MAGDALENA,4.716619,-74.064401,PRECIPITACIÓN,mm,"BOGOTÁ, D.C.","BOGOTÁ, D.C.",BOGOTÁ,T,T,BOGOTÁ D.C,POINT (1001454.1472351056 1013316.0925710599),2025-11-03,1.2000000000000002,0.0,0.0,0.0,50.4,187.7,0.715
26255030,240,SANTA ISABEL VALDIVIA,ANTIOQUIA,VALDIVIA,CAUCA,7.157222222,-75.442275,PRECIPITACIÓN,mm,ANTIOQUIA,VALDIVIA,ANTIOQUIA,T,T,VALDIVIA,POINT (849236.8834421249 1283437.1540130563),2025-11-03,51.1,2.5,30.1,41.5,281.50000000000006,490.8,0.91
23057140,240,SAN MIGUEL,ANTIOQUIA,SONSÓN,MEDIO MAGDALENA,5.731027778,-74.72583333,PRECIPITACIÓN,mm,ANTIOQUIA,SONSÓN,ANTIOQUIA,T,T,SONSÓN,POINT (928185.5740836079 1125533.5356215276),2025-11-03,3.5,0.1,0.1,4.199999999999999,12.3,19.0,0.405
11027030,240,EL SIETE,CHOCO,EL CARMEN,ATRATO - DARIÉN,5.862,-76.15205556,PRECIPITACIÓN,mm,CHOCÓ,EL CARMEN DE ATRATO,CHOCO,T,T,EL CARMEN,POINT (770212.5189136957 1140401.620095605),2025-11-03,2.2,4.3,5.0,5.1,32.599999999999994,46.2,0.66
23085260,240,LA SELVA,ANTIOQUIA,RIONEGRO,MEDIO MAGDALENA,6.131916667,-75.41455556,PRECIPITACIÓN,mm,ANTIOQUIA,RIONEGRO,ANTIOQUIA,T,T,RIONEGRO,POINT (851993.2400636624 1170010.2083872536),2025-11-03,9.6,4.5,6.4,9.7,74.39999999999999,162.7,0.925
21201580,240,PASQUILLA,BOGOTÁ,BOGOTÁ D.C,ALTO MAGDALENA,4.44647201,-74.154839,PRECIPITACIÓN,mm,"BOGOTÁ, D.C.","BOGOTÁ, D.C.",BOGOTÁ,T,T,BOGOTÁ D.C,POINT (991417.2776646883 983443.3056447206),2025-11-03,0.0,0.0,0.0,0.9,7.300000000000002,64.9,0.74
2120000107,240,LA FISCALA,BOGOTÁ,BOGOTÁ D.C,ALTO MAGDALENA,4.53602,-74.10654,PRECIPITACIÓN,mm,"BOGOTÁ, D.C.","BOGOTÁ, D.C.",BOGOTÁ,T,T,BOGOTÁ D.C,POINT (996778.2184003029 993345.2350479328),2025-11-03,0.3,0.0,0.0,0.0,8.6,49.50000000000001,0.635
2120000126,240,COL. CIUDAD DE VILLAVICENCIO,BOGOTÁ,BOGOTÁ D.C,ALTO MAGDALENA,4.48706,-74.10213,PRECIPITACIÓN,mm,"BOGOTÁ, D.C.","BOGOTÁ, D.C.",BOGOTÁ,T,T,BOGOTÁ D.C,POINT (997267.4269919922 987931.1635046203),2025-11-03,0.1,0.0,0.0,1.1,7.6,43.6,0.64
23180070,240,SABANA DE TORRES,SANTANDER,SABANA DE TORRES,MEDIO MAGDALENA,7.39,-73.48944444,PRECIPITACIÓN,mm,SANTANDER,SABANA DE TORRES,SANTANDER,T,T,SABANA DE TORRES,POINT (1064923.8720453542 1308999.641742907),2025-11-03,0.4,0.0,0.0,2.4,299.6,399.2,0.695
23195110,240,LLANO GRANDE,SANTANDER,GIRÓN,MEDIO MAGDALENA,7.025555556,-73.16722222,PRECIPITACIÓN,mm,SANTANDER,GIRÓN,SANTANDER,T,T,GIRÓN,POINT (1100580.8736148581 1268749.9657283686),2025-11-03,0.0,0.0,0.0,0.2,53.3,91.5,0.72
5204700100,240,PUENTE LOS DOLORES,NARIÑO,PASTO,PATÍA,1.199805556,-77.265694444,PRECIPITACIÓN,mm,NARIÑO,PASTO,NARIÑO,T,T,PASTO,POINT (644985.6640127292 624642.3427544737),2025-11-03,20.2,0.0,0.0,0.2,75.19999999999999,82.60000000000001,0.87
2120000129,240,COL. OFELIA URIBE ACOSTA,BOGOTÁ,BOGOTÁ D.C,ALTO MAGDALENA,4.50643,-74.10251,PRECIPITACIÓN,mm,"BOGOTÁ, D.C.","BOGOTÁ, D.C.",BOGOTÁ,T,T,BOGOTÁ D.C,POINT (997225.3276516206 990073.1210698243),2025-11-03,0.1,0.0,0.0,0.0,6.4,34.9,0.63
21209920,240,SANTA ROSITA,CUNDINAMARCA,SUESCA,ALTO MAGDALENA,5.1059444,-73.753694444,PRECIPITACIÓN,mm,CUNDINAMARCA,SUESCA,CUNDINAMARCA,T,T,SUESCA,POINT (1035904.8528017179 1056377.6531412178),2025-11-03,0.1,0.1,0.1,0.1,15.7,43.8,0.57
21255170,240,MURILLO,TOLIMA,MURILLO,ALTO MAGDALENA,4.870555556,-75.173277778,PRECIPITACIÓN,mm,TOLIMA,MURILLO,TOLIMA,T,T,MURILLO,POINT (878449.6362985293 1030437.3910222278),2025-11-03,0.0,0.0,5.4,9.4,11.8,49.50000000000001,0.585
23155030,240,AEROPUERTO YARIGUIES,SANTANDER,BARRANCABERMEJA,MEDIO MAGDALENA,7.026388889,-73.80861111,PRECIPITACIÓN,mm,SANTANDER,BARRANCABERMEJA,SANTANDER,T,T,BARRANCABERMEJA,POINT (1029710.2474768234 1268752.9209584915),2025-11-03,53.0,0.3,0.8,21.6,210.4,524.5,0.805
16017020,240,LA DONJUANA,NORTE DE SANTANDER,CHINÁCOTA,CATATUMBO,7.687972222,-72.60547222,PRECIPITACIÓN,mm,NORTE DE SANTANDER,CHINÁCOTA,NORTE DE SANTANDER,T,T,CHINÁCOTA,POINT (1162420.3946990557 1342189.7123390678),2025-11-03,0.0,0.0,0.0,0.0,5.899999999999999,77.19999999999999,0.715
2120000125,240,COLEGIO SORRENTO,BOGOTÁ,BOGOTÁ D.C,ALTO MAGDALENA,4.619586,-74.11322,PRECIPITACIÓN,mm,"BOGOTÁ, D.C.","BOGOTÁ, D.C.",BOGOTÁ,T,T,BOGOTÁ D.C,POINT (996037.3774058155 1002586.1109944336),2025-11-03,0.5,0.0,0.0,0.0,9.4,61.29999999999999,0.77
27010810,240,SANTA ELENA,ANTIOQUIA,MEDELLÍN,NECHÍ,6.196888889,-75.51675,PRECIPITACIÓN,mm,ANTIOQUIA,MEDELLÍN,ANTIOQUIA,T,T,MEDELLÍN,POINT (840697.7859105321 1177226.8149445467),2025-11-03,4.6,3.1,3.7,8.2,117.3,209.2,0.81
23087670,240,RIOTEX,ANTIOQUIA,RIONEGRO,MEDIO MAGDALENA,6.18125,-75.36638889,PRECIPITACIÓN,mm,ANTIOQUIA,RIONEGRO,ANTIOQUIA,T,T,RIONEGRO,POINT (857339.2002309412 1175454.1381297559),2025-11-03,11.2,1.5,2.6,7.0,64.7,177.90000000000003,0.69
23085220,240,SAN CARLOS,ANTIOQUIA,SAN CARLOS,MEDIO MAGDALENA,6.157666667,-75.03891667,PRECIPITACIÓN,mm,ANTIOQUIA,SAN CARLOS,ANTIOQUIA,T,T,SAN CARLOS,POINT (893584.9307101985 1172769.1044893893),2025-11-03,38.0,1.6,4.800000000000001,19.6,346.4,616.3999999999999,0.875
23205020,240,COLEGIO COOPERATIVO,BOLIVAR,SAN PABLO,MEDIO MAGDALENA,7.475,-73.92555556,PRECIPITACIÓN,mm,BOLÍVAR,SAN PABLO,BOLIVAR,T,T,SAN PABLO,POINT (1016772.4776520132 1318360.0728224872),2025-11-03,45.0,0.0,0.0,15.2,249.6,435.00000000000006,0.925
21065040,240,ZULUAGA,HUILA,GARZÓN,ALTO MAGDALENA,2.2525,-75.52944444,PRECIPITACIÓN,mm,HUILA,GARZÓN,HUILA,T,T,GARZÓN,POINT (838477.8663594596 740917.8291362844),2025-11-03,0.7000000000000001,0.0,0.6,1.0,29.3,61.49999999999999,0.695
21140120,240,CRUCES LAS,TOLIMA,ALPUJARRA,ALTO MAGDALENA,3.425861111,-74.92025,PRECIPITACIÓN,mm,TOLIMA,ALPUJARRA,TOLIMA,T,T,ALPUJARRA,POINT (906349.5346876701 870625.3346767602),2025-11-03,9.4,0.0,0.0,0.0,39.9,91.7,0.8
26085160,240,SILOE,VALLE DEL CAUCA,CALI,CAUCA,3.4255,-76.56061111,PRECIPITACIÓN,mm,VALLE DEL CAUCA,CALI,VALLE DEL CAUCA,T,T,CALI,POINT (723986.409135716 870901.7824847363),2025-11-03,0.0,0.0,0.0,0.1,45.10000000000001,128.29999999999998,0.685
24055504,240,ZAPATOCA-24055504,SANTANDER,ZAPATOCA,SOGAMOSO,6.792763889,-73.27675,PRECIPITACIÓN,mm,SANTANDER,ZAPATOCA,SANTANDER,T,T,ZAPATOCA,POINT (1088521.2065829148 1242980.8907544597),2025-11-03,1.5,0.0,0.0,0.7,81.8,107.3,0.785
52017030,240,LA FONDA,CAUCA,PATÍA,PATÍA,2.147777778,-77.04666667,PRECIPITACIÓN,mm,CAUCA,PATÍA,CAUCA,T,T,PATÍA,POINT (669556.8922188906 729578.7221972987),2025-11-03,11.6,1.2000000000000002,1.8000000000000005,2.0000000000000004,59.400000000000006,59.400000000000006,0.575
23025040,240,ALBANIA,TOLIMA,MARIQUITA,MEDIO MAGDALENA,5.301108889,-74.914580556,PRECIPITACIÓN,mm,TOLIMA,SAN SEBASTIÁN DE MARIQUITA,TOLIMA,T,T,MARIQUITA,POINT (907210.1324231108 1078013.2047435686),2025-11-03,0.0,0.0,0.0,0.0,0.0,0.0,0.61
23085160,240,CORRIENTES,ANTIOQUIA,SAN VICENTE,MEDIO MAGDALENA,6.311944444,-75.25355556,PRECIPITACIÓN,mm,ANTIOQUIA,SAN VICENTE FERRER,ANTIOQUIA,T,T,SAN VICENTE,POINT (869862.344215849 1189881.358011032),2025-11-03,5.2,1.0,1.0,43.6,154.2,306.0,0.9
26247010,240,HACIENDA PALMIRA,ANTIOQUIA,CÁCERES,CAUCA,7.796777778,-75.37252778,PRECIPITACIÓN,mm,ANTIOQUIA,CÁCERES,ANTIOQUIA,T,T,CÁCERES,POINT (857151.1546795144 1354162.866320348),2025-11-03,1.6,0.0,0.0,7.0,142.4,322.6,0.845
35035130,240,PARAMO CHINGAZA,CUNDINAMARCA,GUASCA,META,4.713666667,-73.80325,PRECIPITACIÓN,mm,CUNDINAMARCA,GUASCA,CUNDINAMARCA,T,T,GUASCA,POINT (1030427.7958089709 1012995.5891305045),2025-11-03,0.0,0.4,0.4,1.7999999999999998,18.2,43.6,0.465
23127050,240,BARREDERO FINCA,SANTANDER,PUERTO PARRA,MEDIO MAGDALENA,6.645555556,-74.06527778,PRECIPITACIÓN,mm,SANTANDER,PUERTO PARRA,SANTANDER,T,T,PUERTO PARRA,POINT (1001352.3657108905 1226628.046347881),2025-11-03,97.1,0.0,0.0,38.2,144.1,310.0,0.8
2301700089,240,GUALÍ ALERTAS,TOLIMA,FRESNO,MEDIO MAGDALENA,5.134277778,-75.062055556,PRECIPITACIÓN,mm,TOLIMA,FRESNO,TOLIMA,T,T,FRESNO,POINT (890832.1546000408 1059585.7600917767),2025-11-03,0.0,0.3,0.3,2.9,7.2,27.40000000000001,0.55
21206280,240,ACAPULCO,CUNDINAMARCA,BOJACÁ,ALTO MAGDALENA,4.64823,-74.32035,PRECIPITACIÓN,mm,CUNDINAMARCA,BOJACÁ,CUNDINAMARCA,T,T,BOJACÁ,POINT (973055.1817879758 1005758.136084361),2025-11-03,1.2,0.0,0.0,0.0,18.200000000000003,44.9,0.525
2120000119,240,COL. ALEMANIA UNIFICADA,BOGOTÁ,BOGOTÁ D.C,ALTO MAGDALENA,4.555765,-74.09667,PRECIPITACIÓN,mm,"BOGOTÁ, D.C.","BOGOTÁ, D.C.",BOGOTÁ,T,T,BOGOTÁ D.C,POINT (997873.5812707864 995528.6255406137),2025-11-03,0.0,0.0,0.0,0.0,17.2,64.19999999999999,0.7
52025080,240,ESTRECHO PATIA,CAUCA,PATÍA,PATÍA,1.96,-77.12,PRECIPITACIÓN,mm,CAUCA,PATÍA,CAUCA,T,T,PATÍA,POINT (661348.2664900923 708801.7078230216),2025-11-03,4.4,0.0,0.4,0.5,85.7,154.39999999999998,0.73
24025504,240,ENCINO-24025504,SANTANDER,ENCINO,SOGAMOSO,6.139936111,-73.09926389,PRECIPITACIÓN,mm,SANTANDER,ENCINO,SANTANDER,T,T,ENCINO,POINT (1108282.2717493842 1170811.4380436745),2025-11-03,0.0,0.0,0.0,26.6,134.3,305.20000000000005,0.83
2120500201,240,VITELMA,BOGOTÁ,BOGOTÁ D.C,ALTO MAGDALENA,4.57515,-74.07175,PRECIPITACIÓN,mm,"BOGOTÁ, D.C.","BOGOTÁ, D.C.",BOGOTÁ,T,T,BOGOTÁ D.C,POINT (1000638.9395582214 997672.2185741969),2025-11-03,0.0,0.0,0.0,0.1,16.8,80.50000000000001,0.695
24037030,240,EL PALO,BOYACÁ,TUTA,SOGAMOSO,5.681722222,-73.23113889,PRECIPITACIÓN,mm,BOYACÁ,TUTA,BOYACÁ,T,T,TUTA,POINT (1093760.9399299608 1120109.0581791324),2025-11-03,0.2,0.0,0.2,0.2,19.0,90.4,0.72
2120000134,240,COL. LOS ALPES SEDE A,BOGOTÁ,BOGOTÁ D.C,ALTO MAGDALENA,4.55257,-74.08373,PRECIPITACIÓN,mm,"BOGOTÁ, D.C.","BOGOTÁ, D.C.",BOGOTÁ,T,T,BOGOTÁ D.C,POINT (999309.531617122 995175.293094604),2025-11-03,0.0,0.0,0.0,0.0,17.1,68.10000000000002,0.685
24017707,240,SAN BENITO-24017707,SANTANDER,SAN BENITO,SOGAMOSO,6.118138889,-73.49328056,PRECIPITACIÓN,mm,SANTANDER,SAN BENITO,SANTANDER,T,T,SAN BENITO,POINT (1064669.0252028767 1168337.2139954462),2025-11-03,0.0,0.0,0.0,0.0,0.0,0.0,0.61
2120000133,240,COL. EL MANANTIAL,BOGOTÁ,BOGOTÁ D.C,ALTO MAGDALENA,4.56144,-74.07482,PRECIPITACIÓN,mm,"BOGOTÁ, D.C.","BOGOTÁ, D.C.",BOGOTÁ,T,T,BOGOTÁ D.C,POINT (1000298.2760956967 996156.1466744982),2025-11-03,0.0,0.0,0.0,0.4,10.3,61.00000000000001,0.745
24035508,240,SAN ANTONIO-24035508,BOYACÁ,TUTA,SOGAMOSO,5.698361111,-73.23536111,PRECIPITACIÓN,mm,BOYACÁ,TUTA,BOYACÁ,T,T,TUTA,POINT (1093290.4862685956 1121948.5866453096),2025-11-03,0.3,0.1,0.3,1.1,68.2,124.79999999999998,0.785
24025505,240,ESC AGR MOGOTES,SANTANDER,MOGOTES,SOGAMOSO,6.470027778,-72.97002778,PRECIPITACIÓN,mm,SANTANDER,MOGOTES,SANTANDER,T,T,MOGOTES,POINT (1122511.6126456256 1207350.0627639527),2025-11-03,1.6,0.2,0.2,6.1,121.29999999999998,283.2,0.675
24035510,240,TASCO-24035510,BOYACÁ,TASCO,SOGAMOSO,5.909277778,-72.78380556,PRECIPITACIÓN,mm,BOYACÁ,TASCO,BOYACÁ,T,T,TASCO,POINT (1143266.0973193885 1145371.4030334153),2025-11-03,0.0,0.0,0.0,3.0,13.3,37.9,0.49
24015515,240,OIBA-24015515,SANTANDER,OIBA,SOGAMOSO,6.262666667,-73.31266667,PRECIPITACIÓN,mm,SANTANDER,OIBA,SANTANDER,T,T,OIBA,POINT (1084639.4749259297 1184346.6227824185),2025-11-03,0.0,0.0,0.0,9.0,140.79999999999998,332.9,0.9
2120000122,240,COLEGIO INEM FRANCISCO DE PAULA SANTANDER,BOGOTÁ,BOGOTÁ D.C,ALTO MAGDALENA,4.624567,-74.154993,PRECIPITACIÓN,mm,"BOGOTÁ, D.C.","BOGOTÁ, D.C.",BOGOTÁ,T,T,BOGOTÁ D.C,POINT (991402.291805268 1003137.2866489268),2025-11-03,1.9,0.0,0.0,0.0,17.0,72.5,0.605
21202190,240,JUAN REY,BOGOTÁ,BOGOTÁ D.C,ALTO MAGDALENA,4.51872,-74.08867,PRECIPITACIÓN,mm,"BOGOTÁ, D.C.","BOGOTÁ, D.C.",BOGOTÁ,T,T,BOGOTÁ D.C,POINT (998761.2791316817 991432.1253362542),2025-11-03,1.0,0.0,0.0,0.7000000000000001,9.000000000000002,38.20000000000001,0.65
24035509,240,SUSA-24035509,SANTANDER,ONZAGA,SOGAMOSO,6.188611111,-72.83497222,PRECIPITACIÓN,mm,SANTANDER,ONZAGA,SANTANDER,T,T,ONZAGA,POINT (1137528.32812968 1176256.1651906853),2025-11-03,0.0,0.0,0.0,18.0,88.3,178.7,0.765
2120000108,240,IDIGER,BOGOTÁ,BOGOTÁ D.C,ALTO MAGDALENA,4.674932,-74.113609,PRECIPITACIÓN,mm,"BOGOTÁ, D.C.","BOGOTÁ, D.C.",BOGOTÁ,T,T,BOGOTÁ D.C,POINT (995994.5262916985 1008706.361678177),2025-11-03,2.0,0.0,0.0,0.0,35.800000000000004,123.3,0.705
21202180,240,QUIBA,BOGOTÁ,BOGOTÁ D.C,ALTO MAGDALENA,4.54311,-74.15601,PRECIPITACIÓN,mm,"BOGOTÁ, D.C.","BOGOTÁ, D.C.",BOGOTÁ,T,T,BOGOTÁ D.C,POINT (991288.4595879284 994129.6641419387),2025-11-03,0.4,0.0,0.0,0.0,9.6,49.80000000000001,0.65
2120000117,240,COLEGIO MORALBA SURORIENTAL,BOGOTÁ,BOGOTÁ D.C,ALTO MAGDALENA,4.54294,-74.08031,PRECIPITACIÓN,mm,"BOGOTÁ, D.C.","BOGOTÁ, D.C.",BOGOTÁ,T,T,BOGOTÁ D.C,POINT (999689.0469743807 994110.3932182562),2025-11-03,0.1,0.0,0.0,0.3,7.5,60.0,0.75
2120000105,240,EL CODITO,BOGOTÁ,BOGOTÁ D.C,ALTO MAGDALENA,4.763457,-74.021772,PRECIPITACIÓN,mm,"BOGOTÁ, D.C.","BOGOTÁ, D.C.",BOGOTÁ,T,T,BOGOTÁ D.C,POINT (1006183.2073937271 1018495.7617179904),2025-11-03,0.0,0.0,0.0,0.1,52.8,111.9,0.725
2120000118,240,COL. ALBERTO LLERAS CAMARGO,BOGOTÁ,BOGOTÁ D.C,ALTO MAGDALENA,4.743304,-74.102293,PRECIPITACIÓN,mm,"BOGOTÁ, D.C.","BOGOTÁ, D.C.",BOGOTÁ,T,T,BOGOTÁ D.C,POINT (997250.3234363123 1016267.0041039964),2025-11-03,0.0,0.0,0.0,0.0,45.6,97.9,0.625
2120000174,240,COLEGIO MAGDALENA ORTEGA DE NARIÑO,BOGOTÁ,BOGOTÁ D.C,ALTO MAGDALENA,4.68664,-74.08296,PRECIPITACIÓN,mm,"BOGOTÁ, D.C.","BOGOTÁ, D.C.",BOGOTÁ,T,T,BOGOTÁ D.C,POINT (999395.0926098455 1010000.9513781186),2025-11-03,2.0,0.0,0.0,0.0,58.2,139.6,0.705
21201980,240,GUADALUPE,BOGOTÁ,BOGOTÁ D.C,ALTO MAGDALENA,4.59157,-74.05471,PRECIPITACIÓN,mm,"BOGOTÁ, D.C.","BOGOTÁ, D.C.",BOGOTÁ,T,T,BOGOTÁ D.C,POINT (1002529.761992255 999488.0023377342),2025-11-03,0.0,0.0,0.0,0.0,29.4,66.7,0.65
2120000169,240,COLEGIO LA BELLEZA,BOGOTÁ,BOGOTÁ D.C,ALTO MAGDALENA,4.53059,-74.09244,PRECIPITACIÓN,mm,"BOGOTÁ, D.C.","BOGOTÁ, D.C.",BOGOTÁ,T,T,BOGOTÁ D.C,POINT (998342.927431178 992744.7315665206),2025-11-03,0.3,0.1,0.1,0.3,9.7,38.30000000000001,0.665
2120000138,240,COL. NUEVA ZELANDIA,BOGOTÁ,BOGOTÁ D.C,ALTO MAGDALENA,4.76587,-74.04681,PRECIPITACIÓN,mm,"BOGOTÁ, D.C.","BOGOTÁ, D.C.",BOGOTÁ,T,T,BOGOTÁ D.C,POINT (1003405.5401630125 1018762.421986323),2025-11-03,0.0,0.0,0.0,0.0,37.1,77.30000000000001,0.65
2120000100,240,COLEGIO ALEMANIA SOLIDARIA,BOGOTÁ,BOGOTÁ D.C,ALTO MAGDALENA,4.652389,-74.075434,PRECIPITACIÓN,mm,"BOGOTÁ, D.C.","BOGOTÁ, D.C.",BOGOTÁ,T,T,BOGOTÁ D.C,POINT (1000230.1117369757 1006213.4177905754),2025-11-03,1.1,0.0,0.0,0.0,33.7,94.59999999999998,0.69
2120000099,240,COLEGIO VEINTIUN ANGELES,BOGOTÁ,BOGOTÁ D.C,ALTO MAGDALENA,4.749234,-74.08073,PRECIPITACIÓN,mm,"BOGOTÁ, D.C.","BOGOTÁ, D.C.",BOGOTÁ,T,T,BOGOTÁ D.C,POINT (999642.5426127447 1016922.7062943507),2025-11-03,0.0,0.0,0.0,0.0,22.200000000000003,86.8,0.715
21202240,240,UAN SEDE CIRCUNVALAR,BOGOTÁ,BOGOTÁ D.C,ALTO MAGDALENA,4.63546,-74.05746,PRECIPITACIÓN,mm,"BOGOTÁ, D.C.","BOGOTÁ, D.C.",BOGOTÁ,T,T,BOGOTÁ D.C,POINT (1002224.4726993385 1004341.4137677458),2025-11-03,0.0,0.1,0.1,0.1,9.7,50.30000000000001,0.635
2120000106,240,GRAN BRETAÑA,BOGOTÁ,BOGOTÁ D.C,ALTO MAGDALENA,4.5117,-74.163522222,PRECIPITACIÓN,mm,"BOGOTÁ, D.C.","BOGOTÁ, D.C.",BOGOTÁ,T,T,BOGOTÁ D.C,POINT (990454.400404278 990656.3997298337),2025-11-03,10.1,0.0,0.0,0.6000000000000001,11.3,53.8,0.805
2120000103,240,CERRO NORTE,BOGOTÁ,BOGOTÁ D.C,ALTO MAGDALENA,4.73254,-74.01871,PRECIPITACIÓN,mm,"BOGOTÁ, D.C.","BOGOTÁ, D.C.",BOGOTÁ,T,T,BOGOTÁ D.C,POINT (1006523.1887715397 1015076.9280266592),2025-11-03,0.0,0.0,0.0,0.0,15.5,68.2,0.68
35235010,240,CARDON EL,BOYACÁ,SOCOTÁ,META,6.011666667,-72.52927778,PRECIPITACIÓN,mm,BOYACÁ,SOCOTÁ,BOYACÁ,T,T,SOCOTÁ,POINT (1171427.2132722402 1156770.2798320528),2025-11-03,13.5,8.9,17.5,26.8,188.4,350.1,0.77
35217090,240,LABRANZA GRANDE,BOYACÁ,LABRANZAGRANDE,META,5.566916667,-72.58355556,PRECIPITACIÓN,mm,BOYACÁ,LABRANZAGRANDE,BOYACÁ,T,T,LABRANZAGRANDE,POINT (1165545.3908989422 1107554.1318719005),2025-11-03,0.0,0.2,0.2,0.5,19.3,79.0,0.725
2120000172,240,COLEGIO UNION COLOMBIA SEDE A,BOGOTÁ,BOGOTÁ D.C,ALTO MAGDALENA,4.75947,-74.02752,PRECIPITACIÓN,mm,"BOGOTÁ, D.C.","BOGOTÁ, D.C.",BOGOTÁ,T,T,BOGOTÁ D.C,POINT (1005545.5699764643 1018054.8225536011),2025-11-03,0.0,0.0,0.0,0.0,45.7,111.9,0.665
21206890,240,CERRO CAZADORES,BOGOTÁ,BOGOTÁ D.C,ALTO MAGDALENA,4.66577,-74.02861,PRECIPITACIÓN,mm,"BOGOTÁ, D.C.","BOGOTÁ, D.C.",BOGOTÁ,T,T,BOGOTÁ D.C,POINT (1005425.3738076545 1007693.2981854707),2025-11-03,0.0,0.0,0.0,0.1,8.2,63.99999999999999,0.745
2120000139,240,ESC. PEDAGOGICA EXPRIMENTAL,BOGOTÁ,BOGOTÁ D.C,ALTO MAGDALENA,4.67553,-74.01927,PRECIPITACIÓN,mm,"BOGOTÁ, D.C.","BOGOTÁ, D.C.",BOGOTÁ,T,T,BOGOTÁ D.C,POINT (1006461.5864479137 1008772.6543410294),2025-11-03,0.0,0.0,0.0,0.0,6.300000000000001,44.89999999999999,0.63
5205500123,240,LAS IGLESIAS,NARIÑO,PASTO,PATÍA,1.054805556,-77.27025,PRECIPITACIÓN,mm,NARIÑO,PASTO,NARIÑO,T,T,PASTO,POINT (644460.2370357211 608584.5289983426),2025-11-03,0.0,0.2,0.2,0.2,2.3000000000000003,3.8,0.615
52055220,240,EL PARAISO,NARIÑO,TÚQUERRES,PATÍA,1.070707855,-77.636935689,PRECIPITACIÓN,mm,NARIÑO,TÚQUERRES,NARIÑO,T,T,TÚQUERRES,POINT (603578.4215002367 610390.7395819896),2025-11-03,1.1,1.3,1.4,5.8,56.8,97.29999999999998,0.635
2629700151,240,LA VORAGINE,VALLE DEL CAUCA,CALI,CAUCA,3.346305556,-76.589333333,PRECIPITACIÓN,mm,VALLE DEL CAUCA,CALI,VALLE DEL CAUCA,T,T,CALI,POINT (720768.9964506694 862144.5137173729),2025-11-03,0.0,0.0,0.0,0.0,0.0,0.0,0.61
2633500119,240,GUACHAL PALMASECA,VALLE DEL CAUCA,PALMIRA,CAUCA,3.559541667,-76.456897222,PRECIPITACIÓN,mm,VALLE DEL CAUCA,PALMIRA,VALLE DEL CAUCA,T,T,PALMIRA,POINT (735559.2284585492 885707.4113559074),2025-11-03,0.0,0.0,0.0,0.0,0.0,0.0,0.61
35095120,240,AQUITANIA,BOYACÁ,AQUITANIA,META,5.55663,-72.88175,PRECIPITACIÓN,mm,BOYACÁ,AQUITANIA,BOYACÁ,T,T,AQUITANIA,POINT (1132499.3304104547 1106341.0737789632),2025-11-03,0.0,0.4,0.4,0.5,4.9,13.7,0.6
24035410,240,SOGAMOSO,BOYACÁ,SOGAMOSO,SOGAMOSO,5.72647,-72.92067,PRECIPITACIÓN,mm,BOYACÁ,SOGAMOSO,BOYACÁ,T,T,SOGAMOSO,POINT (1128148.8099521482 1125118.0360438838),2025-11-03,0.0,0.0,0.0,0.9,10.1,28.0,0.62
11110010,240,NORMAL SANTA TERESA,ANTIOQUIA,FRONTINO,ATRATO - DARIÉN,6.763333333,-76.13361111,PRECIPITACIÓN,mm,ANTIOQUIA,FRONTINO,ANTIOQUIA,T,T,FRONTINO,POINT (772650.1080993448 1240133.5749611135),2025-11-03,66.1,0.0,12.5,32.0,160.5,285.1,0.94
24035430,240,TUNGUAVITA,BOYACÁ,PAIPA,SOGAMOSO,5.74583,-73.11636,PRECIPITACIÓN,mm,BOYACÁ,PAIPA,BOYACÁ,T,T,PAIPA,POINT (1106465.433785953 1127219.279116756),2025-11-03,0.1,0.0,0.0,3.1,10.9,60.900000000000006,0.64
24037290,240,PUENTE CHAMEZA,BOYACÁ,NOBSA,SOGAMOSO,5.759888889,-72.90652778,PRECIPITACIÓN,mm,BOYACÁ,NOBSA,BOYACÁ,T,T,NOBSA,POINT (1129708.0685741839 1128817.6149605536),2025-11-03,0.0,0.0,0.0,2.8000000000000003,23.6,46.2,0.445
26207080,240,BOLOMBOLO,ANTIOQUIA,VENECIA,CAUCA,5.97,-75.84,PRECIPITACIÓN,mm,ANTIOQUIA,VENECIA,ANTIOQUIA,T,T,VENECIA,POINT (804826.9839983081 1152232.1931666092),2025-11-03,251.0,7.5,161.5,166.5,629.5,1091.5,0.745
21197010,240,EL PROFUNDO,CUNDINAMARCA,CABRERA,ALTO MAGDALENA,4.011694444,-74.504444444,PRECIPITACIÓN,mm,CUNDINAMARCA,CABRERA,CUNDINAMARCA,T,T,CABRERA,POINT (952588.8785571274 935377.3723540201),2025-11-03,0.5,1.7000000000000002,2.8,2.8,45.8,60.5,0.69
21195170,240,PAQUILO,CUNDINAMARCA,CABRERA,ALTO MAGDALENA,3.993611111,-74.39805556,PRECIPITACIÓN,mm,CUNDINAMARCA,CABRERA,CUNDINAMARCA,T,T,CABRERA,POINT (964402.6816424339 933372.3001824263),2025-11-03,2.6,0.0,0.1,0.1,37.0,116.3,0.765
23065190,240,QUEBRADA NEGRA,CUNDINAMARCA,QUEBRADANEGRA,MEDIO MAGDALENA,5.137611111,-74.48125,PRECIPITACIÓN,mm,CUNDINAMARCA,QUEBRADANEGRA,CUNDINAMARCA,T,T,QUEBRADANEGRA,POINT (955234.6324483716 1059884.5511578366),2025-11-03,7.4,0.0,1.2,26.2,154.6,307.99999999999994,0.81
35027100,240,CARAZA,CUNDINAMARCA,UNE,META,4.428638889,-74.01019444,PRECIPITACIÓN,mm,CUNDINAMARCA,UNE,CUNDINAMARCA,T,T,UNE,POINT (1007471.079862843 981471.1925037475),2025-11-03,0.0,0.0,0.0,0.0,8.6,24.2,0.65
23067060,240,TOBIA,CUNDINAMARCA,LA PEÑA,MEDIO MAGDALENA,5.125305556,-74.44705556,PRECIPITACIÓN,mm,CUNDINAMARCA,LA PEÑA,CUNDINAMARCA,T,T,LA PEÑA,POINT (959025.2497381836 1058521.4448294078),2025-11-03,0.9,0.0,0.2,17.799999999999997,94.7,151.4,0.685
52055210,240,BOTANA,NARIÑO,PASTO,PATÍA,1.16,-77.27880556,PRECIPITACIÓN,mm,NARIÑO,PASTO,NARIÑO,T,T,PASTO,POINT (643519.0970858847 620235.6417843277),2025-11-03,17.5,0.0,0.0,1.5,62.50000000000001,105.5,0.72
26225060,240,HACIENDA COTOVE,ANTIOQUIA,SANTA FE DE ANTIOQUIA,CAUCA,6.533916667,-75.82733333,PRECIPITACIÓN,mm,ANTIOQUIA,SANTA FÉ DE ANTIOQUIA,ANTIOQUIA,T,T,SANTA FE DE ANTIOQUIA,POINT (806437.6512144099 1214618.4217418209),2025-11-03,0.7,0.0,6.3,6.3,57.10000000000001,83.8,0.865
26217010,240,LA GALERA,ANTIOQUIA,SANTA FE DE ANTIOQUIA,CAUCA,6.554972222,-75.86419444,PRECIPITACIÓN,mm,ANTIOQUIA,SANTA FÉ DE ANTIOQUIA,ANTIOQUIA,T,T,SANTA FE DE ANTIOQUIA,POINT (802367.1448607764 1216962.3673993675),2025-11-03,0.0,0.0,6.2,6.2,71.0,109.0,0.805
24015380,240,CARMEN DE CARUPA,CUNDINAMARCA,CARMEN DE CARUPA,SOGAMOSO,5.34819,-73.89817,PRECIPITACIÓN,mm,CUNDINAMARCA,CARMEN DE CARUPA,CUNDINAMARCA,T,T,CARMEN DE CARUPA,POINT (1019877.5063835782 1083159.887707772),2025-11-03,0.0,0.2,1.2,1.2,1.2,1.2,0.52
2401500040,240,CUCUNUBA,CUNDINAMARCA,CUCUNUBÁ,SOGAMOSO,5.21957,-73.78229,PRECIPITACIÓN,mm,CUNDINAMARCA,CUCUNUBÁ,CUNDINAMARCA,T,T,CUCUNUBÁ,POINT (1032728.2858148424 1068941.3840524622),2025-11-03,0.0,2.4,2.4,2.4,17.0,92.8,0.62
23125170,240,SAN CAYETANO,CUNDINAMARCA,SAN CAYETANO,MEDIO MAGDALENA,5.333333333,-74.016666667,PRECIPITACIÓN,mm,CUNDINAMARCA,SAN CAYETANO,CUNDINAMARCA,T,T,SAN CAYETANO,POINT (1006743.6922647752 1081514.4128089529),2025-11-03,0.1,0.0,1.2,2.6,34.00000000000001,74.39999999999999,0.655
23065180,240,VILLETA,CUNDINAMARCA,VILLETA,MEDIO MAGDALENA,5.016861111,-74.47097222,PRECIPITACIÓN,mm,CUNDINAMARCA,VILLETA,CUNDINAMARCA,T,T,VILLETA,POINT (956366.095670037 1046530.6352072547),2025-11-03,1.8,0.0,0.4,32.2,249.40000000000003,370.1,0.81
23067070,240,VILLETA,CUNDINAMARCA,VILLETA,MEDIO MAGDALENA,5.008583333,-74.467111111,PRECIPITACIÓN,mm,CUNDINAMARCA,VILLETA,CUNDINAMARCA,T,T,VILLETA,POINT (956793.7427099063 1045614.9788574587),2025-11-03,1.4,0.0,0.0,0.3,19.2,38.8,0.54
35075040,240,INSTITUCION AGRICOLA MACANAL,BOYACÁ,MACANAL,META,4.974361111,-73.31675,PRECIPITACIÓN,mm,BOYACÁ,MACANAL,BOYACÁ,T,T,MACANAL,POINT (1084372.7996638427 1041866.340515734),2025-11-03,0.0,0.0,0.0,0.0,55.5,141.1,0.73
2319500137,240,VETAS,SANTANDER,VETAS,MEDIO MAGDALENA,7.31022,-72.87683,PRECIPITACIÓN,mm,SANTANDER,VETAS,SANTANDER,T,T,VETAS,POINT (1132589.0819895375 1300310.5110178795),2025-11-03,0.0,0.2,0.2,0.4,70.0,148.59999999999997,0.815
21037020,240,SAN MARCOS,HUILA,ACEVEDO,ALTO MAGDALENA,1.752277778,-75.94541667,PRECIPITACIÓN,mm,HUILA,ACEVEDO,HUILA,T,T,ACEVEDO,POINT (792124.9284798645 685628.6290530514),2025-11-03,4.0,6.0,6.0,6.0,21.2,66.8,0.77
26157190,240,RIO CLARO,CALDAS,VILLAMARIA,CAUCA,4.900916667,-75.45111111,PRECIPITACIÓN,mm,CALDAS,VILLAMARÍA,CALDAS,T,T,VILLAMARIA,POINT (847632.0351739689 1033852.1578372929),2025-11-03,3.0,8.2,8.2,8.2,8.2,8.2,0.67
2308500071,240,RETIRO,ANTIOQUIA,RETIRO,MEDIO MAGDALENA,6.08211,-75.56640167,PRECIPITACIÓN,mm,ANTIOQUIA,RETIRO,ANTIOQUIA,T,T,RETIRO,POINT (835165.6083407219 1164544.7129652305),2025-11-03,9.6,1.6,2.0,12.2,161.19999999999996,295.00000000000006,0.92
26155250,240,PARAMO CONEJERAS,CALDAS,VILLAMARIA,CAUCA,4.829805556,-75.37583333,PRECIPITACIÓN,mm,CALDAS,VILLAMARÍA,CALDAS,T,T,VILLAMARIA,POINT (855968.6189947352 1025969.8865482716),2025-11-03,0.0,0.0,0.1,2.4000000000000004,66.0,128.70000000000002,0.725
2120500050,240,PARAMO ALTO,CUNDINAMARCA,COGUA,ALTO MAGDALENA,5.15886,-74.02322,PRECIPITACIÓN,mm,CUNDINAMARCA,COGUA,CUNDINAMARCA,T,T,COGUA,POINT (1006018.9869228768 1062220.4541317304),2025-11-03,0.0,0.0,0.0,0.0,37.4,119.0,0.675
21206980,240,SANTA CRUZ DE SIECHA,CUNDINAMARCA,GUASCA,ALTO MAGDALENA,4.784277778,-73.87080556,PRECIPITACIÓN,mm,CUNDINAMARCA,GUASCA,CUNDINAMARCA,T,T,GUASCA,POINT (1022930.412556422 1020801.364360507),2025-11-03,0.0,0.8,0.9,1.1,50.5,109.60000000000002,0.725
47017110,240,MONOPAMBA,NARIÑO,PUERRES,PUTUMAYO,0.807777778,-77.30694444,PRECIPITACIÓN,mm,NARIÑO,PUERRES,NARIÑO,T,T,PUERRES,POINT (640344.5660602669 581230.0465504891),2025-11-03,47.0,4.6000000000000005,10.4,11.2,85.8,167.60000000000002,0.9
21015050,240,PURACE,HUILA,SAN AGUSTÍN,ALTO MAGDALENA,1.925916667,-76.42755556,PRECIPITACIÓN,mm,HUILA,SAN AGUSTÍN,HUILA,T,T,SAN AGUSTÍN,POINT (738467.0133095803 704905.5107548934),2025-11-03,0.0,0.0,0.0,0.0,0.0,0.0,0.61
24037080,240,LA GRUTA,BOYACÁ,PESCA,SOGAMOSO,5.566972222,-73.04672222,PRECIPITACIÓN,mm,BOYACÁ,PESCA,BOYACÁ,T,T,PESCA,POINT (1114215.0188879357 1107450.54698585),2025-11-03,0.0,0.0,0.0,0.0,2.6,14.6,0.59
21115170,240,LA PLATA,HUILA,NEIVA,ALTO MAGDALENA,2.759138889,-75.07455556,PRECIPITACIÓN,mm,HUILA,NEIVA,HUILA,T,T,NEIVA,POINT (889131.3661959809 796906.12557478),2025-11-03,0.3,0.1,0.1,0.2,5.300000000000001,18.90000000000001,0.69
21167060,240,SAN PABLO TOLIMA,TOLIMA,CUNDAY,ALTO MAGDALENA,3.92648,-74.657784,PRECIPITACIÓN,mm,TOLIMA,CUNDAY,TOLIMA,T,T,CUNDAY,POINT (935553.4754655448 925964.3833222216),2025-11-03,0.0,0.0,0.0,0.0,0.0,0.0,0.61
24030950,240,MALAGA 2,SANTANDER,MÁLAGA,SOGAMOSO,6.706388889,-72.72972222,PRECIPITACIÓN,mm,SANTANDER,MÁLAGA,SANTANDER,T,T,MÁLAGA,POINT (1149028.4866304025 1233560.2698833516),2025-11-03,0.0,0.0,21.2,21.8,225.0,344.19999999999993,0.72
52050090,240,IMUES,NARIÑO,IMUÉS,PATÍA,1.05525,-77.49955556,PRECIPITACIÓN,mm,NARIÑO,IMUÉS,NARIÑO,T,T,IMUÉS,POINT (618895.5531258554 608660.9587286437),2025-11-03,3.5,0.2,0.2,0.2,65.7,82.10000000000001,0.515
23195200,240,CACHIRI,SANTANDER,SURATÁ,MEDIO MAGDALENA,7.47389,-72.99111,PRECIPITACIÓN,mm,SANTANDER,SURATÁ,SANTANDER,T,T,SURATÁ,POINT (1119923.5900613822 1318382.3223675378),2025-11-03,0.0,0.0,0.0,4.6000000000000005,94.6,166.8,0.825
51020011,240,PIEDRANCHA -,NARIÑO,MALLAMA,MIRA,1.141527778,-77.92897222,PRECIPITACIÓN,mm,NARIÑO,MALLAMA,NARIÑO,T,T,MALLAMA,POINT (571016.3622300916 618278.882246605),2025-11-03,102.1,1.8,3.0,26.1,156.2,324.3,0.8
26145090,240,SANTA EMILIA,RISARALDA,BELÉN DE UMBRÍA,CAUCA,5.207472222,-75.90294444,PRECIPITACIÓN,mm,RISARALDA,BELÉN DE UMBRÍA,RISARALDA,T,T,BELÉN DE UMBRÍA,POINT (797592.5687998295 1067888.6233994658),2025-11-03,0.1,23.6,25.8,28.200000000000003,164.70000000000002,256.8,0.84
37017040,240,PUENTE LOPEZ,NORTE DE SANTANDER,CHITAGÁ,ARAUCA,7.203333333,-72.63388889,PRECIPITACIÓN,mm,NORTE DE SANTANDER,CHITAGÁ,NORTE DE SANTANDER,T,T,CHITAGÁ,POINT (1159459.4156710927 1288564.844300984),2025-11-03,0.0,2.4000000000000004,2.4000000000000004,2.4000000000000004,37.8,66.2,0.75
37015030,240,BERLIN,SANTANDER,TONA,ARAUCA,7.187,-72.8685,PRECIPITACIÓN,mm,SANTANDER,TONA,SANTANDER,T,T,TONA,POINT (1133545.3788716178 1286682.8747705265),2025-11-03,0.0,0.7000000000000001,0.7000000000000001,2.1,68.8,139.5,0.775
